code, lat, lng, point, alt, name, region, name_k, region_k
JA/NI-001,36.7946,137.754,10,2611,Yukikuradake,Itoigawa-city<JCC#0816>Shimoniikawa-gun<JCG#28003A>,雪倉岳,新潟県糸魚川市<JCC#0816>富山県下新川郡朝日町<JCG#28003A>
JA/NI-002,36.9227,138.0681,10,2462,Hiuchiyama,Myoko-city<JCC#0827>Itoigawa-city<JCC#0816>,火打山,新潟県妙高市<JCC#0827>新潟県糸魚川市<JCC#0816>
JA/NI-003,36.8913,138.1135,10,2454,Myoukousan,Myoko-city<JCC#0827>,妙高山,新潟県妙高市<JCC#0827>
JA/NI-004,36.921,138.036,10,2400,Yakeyama,Itoigawa-city<JCC#0816>Myoko-city<JCC#0827>,焼山,新潟県糸魚川市<JCC#0816>新潟県妙高市<JCC#0827>
JA/NI-005,36.8459,138.6903,10,2145,Naebasan,Nakauonuma-gun<JCG#08008B>Minamiuonuma-gun<JCG#08015D>Shimominochi-gun<JCG#09010B>,苗場山,新潟県中魚沼郡津南町<JCG#08008B>新潟県南魚沼郡湯沢町<JCG#08015D>長野県下水内郡栄村<JCG#09010B>
JA/NI-006,37.0021,139.1709,10,2141,Hiragatake,Uonuma-city<JCC#0825>Tone-gun<JCG#16010I>,平ヶ岳,新潟県魚沼市<JCC#0825>群馬県利根郡みなかみ町<JCG#16010I>
JA/NI-007,37.8332,139.6607,10,2128,Dainichidake,Shibata-city<JCC#0806>Higashikambara-gun<JCG#08013E>,大日岳,新潟県新発田市<JCC#0806>新潟県東蒲原郡阿賀町<JCG#08013E>
JA/NI-008,37.8549,139.7071,10,2105,Iidesan,Kitakata-city<JCC#0708>,飯豊山,福島県喜多方市<JCC#0708>
JA/NI-009,37.0852,139.0776,10,2085,Nakanodake,Minamiuonuma-city<JCC#0826>Uonuma-city<JCC#0825>,中ノ岳,新潟県南魚沼市<JCC#0826>新潟県魚沼市<JCC#0825>
JA/NI-010,36.7936,138.6894,10,2052,Narazuyama,Minamiuonuma-gun<JCG#08015D>Shimominochi-gun<JCG#09010B>,ナラズ山,新潟県南魚沼郡湯沢町<JCG#08015D>長野県下水内郡栄村<JCG#09010B>
JA/NI-011,37.88,139.6385,10,2025,Kitamatadake,Shibata-city<JCC#0806>Nishiokitama-gun<JCG#05003B>,北股岳,新潟県新発田市<JCC#0806>山形県西置賜郡小国町<JCG#05003B>
JA/NI-012,37.1236,139.0752,10,2003,Komagatake,Minamiuonuma-city<JCC#0826>Uonuma-city<JCC#0825>,駒ヶ岳,新潟県南魚沼市<JCC#0826>新潟県魚沼市<JCC#0825>
JA/NI-013,36.8491,138.9166,10,1978,Tanigawadake/Shigekuradake,Minamiuonuma-gun<JCG#08015D>Tone-gun<JCG#16010I>,谷川岳(茂倉岳),新潟県南魚沼郡湯沢町<JCG#08015D>群馬県利根郡みなかみ町<JCG#16010I>
JA/NI-014,37.1005,139.1482,10,1969,Arasawadake,Uonuma-city<JCC#0825>,荒沢岳,新潟県魚沼市<JCC#0825>
JA/NI-015,36.8281,138.0042,10,1927,Doutsudake,Myoko-city<JCC#0827>Kitaazumi-gun<JCG#09005E>Nagano-city<JCC#0901>,堂津岳,新潟県妙高市<JCC#0827>長野県北安曇郡小谷村<JCG#09005E>長野県長野市<JCC#0901>
JA/NI-016,37.0662,139.0979,10,1926,Usagidake,Minamiuonuma-city<JCC#0826>Uonuma-city<JCC#0825>,兎岳,新潟県南魚沼市<JCC#0826>新潟県魚沼市<JCC#0825>
JA/NI-017,37.104,139.024,10,1778,Hakkaisan/Nyuudoudake,Minamiuonuma-city<JCC#0826>,八海山(入道岳),新潟県南魚沼市<JCC#0826>
JA/NI-018,36.8049,138.732,10,1655,Akayuyama,Minamiuonuma-gun<JCG#08015D>,赤湯山,新潟県南魚沼郡湯沢町<JCG#08015D>
JA/NI-019,37.9426,139.6088,10,1636,Eburisashidake,Iwafune-gun<JCG#08001C>,エブリ差岳(エブリ木ヘンに八),新潟県岩船郡関川村<JCG#08001C>
JA/NI-020,36.9319,137.9689,10,1631,Nokogiridake,Itoigawa-city<JCC#0816>,鋸岳,新潟県糸魚川市<JCC#0816>
JA/NI-021,36.8543,138.8159,10,1631,Nihhakusan,Minamiuonuma-gun<JCG#08015D>,日白山,新潟県南魚沼郡湯沢町<JCG#08015D>
JA/NI-022,36.9388,137.9538,10,1591,Onigatsurayama,Itoigawa-city<JCC#0816>,鬼ヶ面山,新潟県糸魚川市<JCC#0816>
JA/NI-023,37.1833,139.1895,10,1553,Mijyougatake,Uonuma-city<JCC#0825>,未丈が岳,新潟県魚沼市<JCC#0825>
JA/NI-024,37.3977,139.1365,10,1537,Sumondake,Uonuma-city<JCC#0825>Sanjo-city<JCC#0804>,守門岳,新潟県魚沼市<JCC#0825>新潟県三条市<JCC#0804>
JA/NI-025,37.0633,139.174,10,1523,Daisawayama,Uonuma-city<JCC#0825>,大沢山,新潟県魚沼市<JCC#0825>
JA/NI-026,36.963,137.9748,10,1511,Amidayama,Itoigawa-city<JCC#0816>,阿彌陀山,新潟県糸魚川市<JCC#0816>
JA/NI-027,36.9523,138.1118,8,1499,Yougasan,Myoko-city<JCC#0827>Itoigawa-city<JCC#0816>,容雅山,新潟県妙高市<JCC#0827>新潟県糸魚川市<JCC#0816>
JA/NI-028,37.0088,138.9389,8,1475,P1475,Minamiuonuma-city<JCC#0826>,点1475,新潟県南魚沼市<JCC#0826>
JA/NI-029,37.1476,139.1853,8,1431,Hinatagurayama,Uonuma-city<JCC#0825>,日向倉山,新潟県魚沼市<JCC#0825>
JA/NI-030,36.9894,138.1316,8,1430,Oogenashiyama,Joetsu-city<JCC#0822>Myoko-city<JCC#0827>,大毛無山,新潟県上越市<JCC#0822>新潟県妙高市<JCC#0827>
JA/NI-031,37.892,139.5043,8,1424,Nihonngiyama,Shibata-city<JCC#0806>Tainai-city<JCC#0828>,二本木山,新潟県新発田市<JCC#0806>新潟県胎内市<JCC#0828>
JA/NI-032,37.8635,139.5559,8,1408,Akatsuyama,Shibata-city<JCC#0806>Tainai-city<JCC#0828>,赤津山,新潟県新発田市<JCC#0806>新潟県胎内市<JCC#0828>
JA/NI-034,37.7956,139.5279,8,1363,Hirubasan,Shibata-city<JCC#0806>Higashikambara-gun<JCG#08013E>,蒜場山,新潟県新発田市<JCC#0806>新潟県東蒲原郡阿賀町<JCG#08013E>
JA/NI-035,37.0125,138.9891,8,1341,Ookabutoyama,Minamiuonuma-city<JCC#0826>,大兜山,新潟県南魚沼市<JCC#0826>
JA/NI-036,37.0286,138.0264,8,1316,Hokogatake,Itoigawa-city<JCC#0816>,鉾ヶ岳,新潟県糸魚川市<JCC#0816>
JA/NI-037,37.5552,139.1887,8,1293,Awagatake,Kamo-city<JCC#0809>Sanjo-city<JCC#0804>,粟ヶ岳,新潟県加茂市<JCC#0809>新潟県三条市<JCC#0804>
JA/NI-038,36.9445,137.7111,8,1287,Shiratoriyama,Itoigawa-city<JCC#0816>Shimoniikawa-gun<JCG#28003A>,白鳥山,新潟県糸魚川市<JCC#0816>富山県下新川郡朝日町<JCG#28003A>
JA/NI-039,37.5123,139.2661,8,1258,Yahazudake,Gosen-city<JCC#0818>Sanjo-city<JCC#0804>,矢筈岳,新潟県五泉市<JCC#0818>新潟県三条市<JCC#0804>
JA/NI-040,36.9766,137.7901,8,1222,Kurohimeyama,Itoigawa-city<JCC#0816>,黒姫山,新潟県糸魚川市<JCC#0816>
JA/NI-041,37.5372,139.2564,8,1216,Aoridake,Sanjo-city<JCC#0804>Gosen-city<JCC#0818>,青里岳,新潟県三条市<JCC#0804>新潟県五泉市<JCC#0818>
JA/NI-042,37.0312,138.1361,8,1205,Nakanodake,Myoko-city<JCC#0827>Joetsu-city<JCC#0822>,中の岳,新潟県妙高市<JCC#0827>新潟県上越市<JCC#0822>
JA/NI-043,36.9438,138.7695,8,1181,Takatsukurayama,Minamiuonuma-gun<JCG#08015D>Tokamachi-city<JCC#0810>,高津倉山,新潟県南魚沼郡湯沢町<JCG#08015D>新潟県十日町市<JCC#0810>
JA/NI-044,38.1039,138.3498,8,1172,Kinpokusan,Sado-city<JCC#0824>,金北山,新潟県佐渡市<JCC#0824>
JA/NI-045,36.929,138.7832,8,1172,Oomine,Minamiuonuma-gun<JCG#08015D>,大峰,新潟県南魚沼郡湯沢町<JCG#08015D>
JA/NI-046,37.5213,139.4575,8,1140,Kasakurayama,Higashikambara-gun<JCG#08013E>,笠倉山,新潟県東蒲原郡阿賀町<JCG#08013E>
JA/NI-047,36.9564,138.833,8,1112,Iijisan,Minamiuonuma-city<JCC#0826>Minamiuonuma-gun<JCG#08015D>,飯士山,新潟県南魚沼市<JCC#0826>新潟県南魚沼郡湯沢町<JCG#08015D>
JA/NI-048,37.5999,139.3657,8,1107,Nabekurayama,Higashikambara-gun<JCG#08013E>,鍋倉山,新潟県東蒲原郡阿賀町<JCG#08013E>
JA/NI-049,37.485,139.2984,6,1096,P1096,Higashikambara-gun<JCG#08013E>Sanjo-city<JCC#0804>,点1096(駒形山近傍),新潟県東蒲原郡阿賀町<JCG#08013E>新潟県三条市<JCC#0804>
JA/NI-050,38.2219,139.669,6,1093,Washigasuyama,Murakami-city<JCC#0812>,鷲ヶ巣山,新潟県村上市<JCC#0812>
JA/NI-051,37.6224,139.3453,6,1081,Nihondairayama,Higashikambara-gun<JCG#08013E>Gosen-city<JCC#0818>,日本平山,新潟県東蒲原郡阿賀町<JCG#08013E>新潟県五泉市<JCC#0818>
JA/NI-052,37.2613,139.0749,6,1079,Karamatsuyama,Uonuma-city<JCC#0825>,唐松山,新潟県魚沼市<JCC#0825>
JA/NI-053,37.7763,139.5882,6,1068,Fudedukayama,Higashikambara-gun<JCG#08013E>,筆塚山,新潟県東蒲原郡阿賀町<JCG#08013E>
JA/NI-054,37.4751,139.2491,6,1044,Kenashiyama,Sanjo-city<JCC#0804>,毛無山,新潟県三条市<JCC#0804>
JA/NI-055,37.5638,139.2431,6,1040,P1040,Gosen-city<JCC#0818>,点1040(灰ケ岳(三角点)近傍),新潟県五泉市<JCC#0818>
JA/NI-056,37.1947,139.132,6,1037,Tsutsumigakurayama,Uonuma-city<JCC#0825>,鼓が倉山,新潟県魚沼市<JCC#0825>
JA/NI-057,37.044,138.1594,6,1029,Shigekurayama,Myoko-city<JCC#0827>Joetsu-city<JCC#0822>,重倉山,新潟県妙高市<JCC#0827>新潟県上越市<JCC#0822>
JA/NI-058,37.7457,139.5026,6,1025,Bougakeyama,Higashikambara-gun<JCG#08013E>,棒掛山,新潟県東蒲原郡阿賀町<JCG#08013E>
JA/NI-059,37.0103,138.7737,6,1020,P1020,Tokamachi-city<JCC#0810>Minamiuonuma-city<JCC#0826>,点1020(当間山近傍),新潟県十日町市<JCC#0810>新潟県南魚沼市<JCC#0826>
JA/NI-060,38.1457,139.6626,6,1017,Zukinyama,Iwafune-gun<JCG#08001C>,頭巾山,新潟県岩船郡関川村<JCG#08001C>
JA/NI-061,37.6144,139.1951,6,1012,Hakusan,Gosen-city<JCC#0818>Kamo-city<JCC#0809>,白山,新潟県五泉市<JCC#0818>新潟県加茂市<JCC#0809>
JA/NI-062,38.1783,138.405,6,1003,Yukihatayama,Sado-city<JCC#0824>,雪畑山,新潟県佐渡市<JCC#0824>
JA/NI-063,37.269,139.0426,6,998,Kamigongendouyama,Uonuma-city<JCC#0825>,上権現堂山,新潟県魚沼市<JCC#0825>
JA/NI-064,37.2896,138.4839,6,993,Yoneyama,Kashiwazaki-city<JCC#0805>Joetsu-city<JCC#0822>,米山,新潟県柏崎市<JCC#0805>新潟県上越市<JCC#0822>
JA/NI-065,37.7792,139.3289,6,981,Hishigatake,Higashikambara-gun<JCG#08013E>Agano-city<JCC#0823>,菱ヶ岳,新潟県東蒲原郡阿賀町<JCG#08013E>新潟県阿賀野市<JCC#0823>
JA/NI-066,38.3,139.6926,6,968,Ishiguroyama,Murakami-city<JCC#0812>,石黒山,新潟県村上市<JCC#0812>
JA/NI-067,38.1491,139.6358,6,966,Kousagisan,Iwafune-gun<JCG#08001C>,光兎山,新潟県岩船郡関川村<JCG#08001C>
JA/NI-068,38.3156,139.6562,6,954,Sanpeiyama,Murakami-city<JCC#0812>,三平山,新潟県村上市<JCC#0812>
JA/NI-069,38.2159,138.4518,6,947,Bunagahirayama,Sado-city<JCC#0824>,山毛﨔ガ平山,新潟県佐渡市<JCC#0824>
JA/NI-070,37.2136,139.1395,6,939,P939,Uonuma-city<JCC#0825>,点939,新潟県魚沼市<JCC#0825>
JA/NI-071,37.3006,139.0892,6,934,Tsuchikuzureyama,Uonuma-city<JCC#0825>,土崩山,新潟県魚沼市<JCC#0825>
JA/NI-072,37.9611,139.5142,6,931,Kazekurasan,Tainai-city<JCC#0828>,風倉山,新潟県胎内市<JCC#0828>
JA/NI-073,37.5599,139.3193,6,918,Daiyama,Higashikambara-gun<JCG#08013E>,大山,新潟県東蒲原郡阿賀町<JCG#08013E>
JA/NI-074,37.5418,139.3067,6,916,P916,Gosen-city<JCC#0818>,点916,新潟県五泉市<JCC#0818>
JA/NI-076,37.2261,138.5921,6,891,Kurohimesan,Kashiwazaki-city<JCC#0805>,黒姫山,新潟県柏崎市<JCC#0805>
JA/NI-077,37.6646,139.3225,6,866,Mandarokuyama,Gosen-city<JCC#0818>Higashikambara-gun<JCG#08013E>,マンダロク山,新潟県五泉市<JCC#0818>新潟県東蒲原郡阿賀町<JCG#08013E>
JA/NI-078,37.7969,139.4816,6,857,Manaitakurayama,Shibata-city<JCC#0806>Higashikambara-gun<JCG#08013E>,俎倉山,新潟県新発田市<JCC#0806>新潟県東蒲原郡阿賀町<JCG#08013E>
JA/NI-079,38.3429,139.6975,6,853,P853,Murakami-city<JCC#0812>,点853,新潟県村上市<JCC#0812>
JA/NI-080,38.3611,139.5108,6,852,Shinbodake,Murakami-city<JCC#0812>,新保岳,新潟県村上市<JCC#0812>
JA/NI-081,38.2734,139.651,4,836,Shikamoriyama,Murakami-city<JCC#0812>,鹿森山,新潟県村上市<JCC#0812>
JA/NI-082,38.1039,139.6455,4,824,Yokomatsu,Iwafune-gun<JCG#08001C>,横松(三角点),新潟県岩船郡関川村<JCG#08001C>
JA/NI-083,38.3449,139.5029,4,820,Noboritateyama,Murakami-city<JCC#0812>,登立山,新潟県村上市<JCC#0812>
JA/NI-084,38.022,139.6075,4,800,Near_Budouhanayama,Iwafune-gun<JCG#08001C>,葡萄鼻山近傍,新潟県岩船郡関川村<JCG#08001C>
JA/NI-085,37.3986,138.9352,4,765,Nokogiriyama,Nagaoka-city<JCC#0802>,鋸山,新潟県長岡市<JCC#0802>
JA/NI-086,37.2251,138.5015,4,757,Ogamidake,Joetsu-city<JCC#0822>,尾神岳,新潟県上越市<JCC#0822>
JA/NI-087,38.1147,139.6245,4,726,Yuzousan,Iwafune-gun<JCG#08001C>,湯蔵山,新潟県岩船郡関川村<JCG#08001C>
JA/NI-088,38.3936,139.6047,4,709,Kareiyama,Murakami-city<JCC#0812>,鰈山,新潟県村上市<JCC#0812>
JA/NI-089,37.6838,139.5435,4,698,Usangakurayama,Higashikambara-gun<JCG#08013E>,兎ヶ倉山,新潟県東蒲原郡阿賀町<JCG#08013E>
JA/NI-090,37.3198,138.9862,4,681,Toyagamine,Uonuma-city<JCC#0825>,鳥屋ガ峰,新潟県魚沼市<JCC#0825>
JA/NI-091,37.2196,138.525,4,676,Tokinzan,Kashiwazaki-city<JCC#0805>Joetsu-city<JCC#0822>,兜巾山,新潟県柏崎市<JCC#0805>新潟県上越市<JCC#0822>
JA/NI-092,37.716,139.4232,4,657,Shirahigeyama,Higashikambara-gun<JCG#08013E>,白髭山,新潟県東蒲原郡阿賀町<JCG#08013E>
JA/NI-093,37.195,139.0538,4,654,Nametokoyama,Uonuma-city<JCC#0825>,ナメトコ山,新潟県魚沼市<JCC#0825>
JA/NI-094,37.9586,138.4796,2,646,Oojiyama,Sado-city<JCC#0824>,大地山,新潟県佐渡市<JCC#0824>
JA/NI-095,37.4802,139.1297,2,645,P645,Sanjo-city<JCC#0804>,点645,新潟県三条市<JCC#0804>
JA/NI-096,37.0823,138.6725,2,641,Jyouyama,Tokamachi-city<JCC#0810>,城山,新潟県十日町市<JCC#0810>
JA/NI-097,37.9327,138.3987,2,636,Kyoudukasan,Sado-city<JCC#0824>,経塚山,新潟県佐渡市<JCC#0824>
JA/NI-098,37.7047,138.8089,2,634,Yahikoyama,Nishikambara-gun<JCG#08011I>Nagaoka-city<JCC#0802>,弥彦山,新潟県西蒲原郡弥彦村<JCG#08011I>新潟県長岡市<JCC#0802>
JA/NI-099,38.3755,139.6183,2,634,Tengaisan,Murakami-city<JCC#0812>,天蓋山,新潟県村上市<JCC#0812>
JA/NI-100,38.4114,139.6364,2,633,Ananzawa,Murakami-city<JCC#0812>,阿南沢(三角点),新潟県村上市<JCC#0812>
JA/NI-101,37.6503,139.2642,2,631,Gongenyama,Gosen-city<JCC#0818>,権現山,新潟県五泉市<JCC#0818>
JA/NI-102,38.2604,139.7262,2,630,P630,Murakami-city<JCC#0812>,点630,新潟県村上市<JCC#0812>
JA/NI-103,37.3324,139.0691,2,630,Hotoramine,Uonuma-city<JCC#0825>,ほとら峯,新潟県魚沼市<JCC#0825>
JA/NI-104,37.7631,139.3884,2,615,Kasasugayama,Higashikambara-gun<JCG#08013E>,笠菅山,新潟県東蒲原郡阿賀町<JCG#08013E>
JA/NI-105,38.0238,138.5214,2,610,Oosumiyama,Sado-city<JCC#0824>,大隅山,新潟県佐渡市<JCC#0824>
JA/NI-106,37.3788,138.9658,2,606,Sanbonbunayama,Nagaoka-city<JCC#0802>Uonuma-city<JCC#0825>,三本ぶな山,新潟県長岡市<JCC#0802>新潟県魚沼市<JCC#0825>
JA/NI-107,37.0913,138.0742,2,599,Mineyama,Itoigawa-city<JCC#0816>Joetsu-city<JCC#0822>,峰山,新潟県糸魚川市<JCC#0816>新潟県上越市<JCC#0822>
JA/NI-108,37.3482,138.8708,2,582,Kanagurayama,Ojiya-city<JCC#0808>Nagaoka-city<JCC#0802>,金倉山,新潟県小千谷市<JCC#0808>新潟県長岡市<JCC#0802>
JA/NI-110,38.0795,139.4792,2,571,Takatsuboyama,Tainai-city<JCC#0828>Murakami-city<JCC#0812>,高坪山,新潟県胎内市<JCC#0828>新潟県村上市<JCC#0812>
JA/NI-111,38.0206,139.4276,2,568,Kushigatayama,Tainai-city<JCC#0828>Shibata-city<JCC#0806>,櫛形山,新潟県胎内市<JCC#0828>新潟県新発田市<JCC#0806>
JA/NI-112,38.5251,139.5969,2,555,Nihongoku,Murakami-city<JCC#0812>Tsuruoka-city<JCC#0503>,日本国,新潟県村上市<JCC#0812>山形県鶴岡市<JCC#0503>
JA/NI-113,37.1368,138.5271,2,541,Nabetachiyama,Tokamachi-city<JCC#0810>Joetsu-city<JCC#0822>,鍋立山,新潟県十日町市<JCC#0810>新潟県上越市<JCC#0822>
JA/NI-114,38.1945,139.6045,2,539,Ishiguroyama,Murakami-city<JCC#0812>,石黒山,新潟県村上市<JCC#0812>
JA/NI-115,37.714,139.3343,2,534,Higashiyama,Higashikambara-gun<JCG#08013E>,東山(三角点),新潟県東蒲原郡阿賀町<JCG#08013E>
JA/NI-116,36.9758,138.2477,2,528,Takatokoyama,Myoko-city<JCC#0827>Joetsu-city<JCC#0822>,高床山,新潟県妙高市<JCC#0827>新潟県上越市<JCC#0822>
JA/NI-117,37.7358,139.3515,2,528,Kuroyama,Higashikambara-gun<JCG#08013E>,黒山(三角点),新潟県東蒲原郡阿賀町<JCG#08013E>
JA/NI-118,37.5537,139.1222,2,526,Hakamagoshiyama,Sanjo-city<JCC#0804>,袴腰山,新潟県三条市<JCC#0804>
JA/NI-119,37.3078,138.6592,2,518,Hachikokusan,Nagaoka-city<JCC#0802>Kashiwazaki-city<JCC#0805>,八石山,新潟県長岡市<JCC#0802>新潟県柏崎市<JCC#0805>
JA/NI-120,38.5086,139.6638,2,513,Takatoya,Murakami-city<JCC#0812>Tsuruoka-city<JCC#0503>,高鳥屋,新潟県村上市<JCC#0812>山形県鶴岡市<JCC#0503>
JA/NI-121,38.503,139.5856,2,510,Gengayama,Murakami-city<JCC#0812>,源賀山,新潟県村上市<JCC#0812>
JA/NI-122,37.1495,138.4749,2,507,Kirigatake,Joetsu-city<JCC#0822>,霧ヶ岳,新潟県上越市<JCC#0822>
JA/NI-123,38.2073,139.6154,2,504,P504,Murakami-city<JCC#0812>,点504,新潟県村上市<JCC#0812>
JA/NI-124,37.715,139.4889,2,500,Kurosakiyama,Higashikambara-gun<JCG#08013E>,黒崎山,新潟県東蒲原郡阿賀町<JCG#08013E>
JA/NI-125,38.4583,139.5324,1,489,Eboshidake,Murakami-city<JCC#0812>,烏帽子岳,新潟県村上市<JCC#0812>
JA/NI-126,37.1605,138.631,1,484,Yakushi,Tokamachi-city<JCC#0810>,薬師(三角点),新潟県十日町市<JCC#0810>
JA/NI-127,37.7805,138.8369,1,480,Kakudayama,Nishikan-ku<JCC#080108>,角田山,新潟県新潟市西蒲区<JCC#080108>
JA/NI-128,37.3191,138.5191,1,460,Near_Tanne,Kashiwazaki-city<JCC#0805>,谷根(三角点)近傍,新潟県柏崎市<JCC#0805>
JA/NI-129,38.4938,139.6263,1,453,P453,Murakami-city<JCC#0812>,点453,新潟県村上市<JCC#0812>
JA/NI-130,38.2728,139.4879,1,440,P440,Murakami-city<JCC#0812>,点440,新潟県村上市<JCC#0812>
JA/NI-131,38.1278,139.5145,1,438,Houzakayama,Iwafune-gun<JCG#08001C>Murakami-city<JCC#0812>,朴坂山,新潟県岩船郡関川村<JCG#08001C>新潟県村上市<JCC#0812>
JA/NI-132,38.4594,139.584,1,411,Hagetayama,Murakami-city<JCC#0812>,ハゲタ山,新潟県村上市<JCC#0812>
JA/NI-133,38.3067,139.5848,1,411,Sekiguchi,Murakami-city<JCC#0812>,関口(三角点),新潟県村上市<JCC#0812>
JA/NI-134,37.1774,138.46,1,396,Kogamoda,Joetsu-city<JCC#0822>,小蒲生田(三角点),新潟県上越市<JCC#0822>
JA/NI-135,37.3179,138.4515,1,367,Jyouyama,Kashiwazaki-city<JCC#0805>,城山,新潟県柏崎市<JCC#0805>
JA/NI-136,37.4907,138.7273,1,357,Shibatouge,Nagaoka-city<JCC#0802>Santo-gun<JCG#08007C>,芝峠(三角点),新潟県長岡市<JCC#0802>新潟県三島郡出雲崎町<JCG#08007C>
JA/NI-137,37.6449,139.1057,1,327,Sarugetake,Kamo-city<JCC#0809>,猿毛岳,新潟県加茂市<JCC#0809>
JA/NI-138,37.6704,138.8156,1,313,Kugamiyama,Tsubame-city<JCC#0813>,国上山,新潟県燕市<JCC#0813>
JA/NI-139,37.5599,138.9813,1,298,Doujyoyama,Sanjo-city<JCC#0804>Mitsuke-city<JCC#0811>,道上山,新潟県三条市<JCC#0804>新潟県見附市<JCC#0811>
JA/NI-140,36.8926,138.1028,10,2360,Mitaharayama,Myoko-city<JCC#0827>,三田原山,新潟県妙高市<JCC#0827>
JA/NI-141,36.9042,138.014,10,2245,Kanayama,Myoko-city<JCC#0827>Itoigawa-city<JCC#0816>Kitaazumi-gun<JCG#09005E>,金山,新潟県妙高市<JCC#0827>新潟県糸魚川市<JCC#0816>長野県北安曇郡小谷村<JCG#09005E>
JA/NI-142,36.833,138.0527,10,2073,Jizouyama,Myoko-city<JCC#0827>,地蔵山,新潟県妙高市<JCC#0827>
JA/NI-143,37.02,139.0912,10,1861,Echigozawayama,Minamiuonuma-city<JCC#0826>Tone-gun<JCG#16010I>,越後沢山,新潟県南魚沼市<JCC#0826>群馬県利根郡みなかみ町<JCG#16010I>
JA/NI-144,37.0777,139.1379,10,1852,Hainomatayama,Uonuma-city<JCC#0825>,灰ノ又山,新潟県魚沼市<JCC#0825>
JA/NI-145,36.9404,138.0076,10,1840,Hirukurayama,Itoigawa-city<JCC#0816>,昼闇山,新潟県糸魚川市<JCC#0816>
JA/NI-146,37.8137,139.5973,10,1572,Eboshiyama,Higashikambara-gun<JCG#08013E>,烏帽子山,新潟県東蒲原郡阿賀町<JCG#08013E>
JA/NI-147,38.3552,139.8044,10,1506,Bakeanayama,Murakami-city<JCC#0812>Tsuruoka-city<JCC#0503>,化穴山,新潟県村上市<JCC#0812>山形県鶴岡市<JCC#0503>
JA/NI-148,36.8605,138.7481,10,1500,Yagioyama,Minamiuonuma-gun<JCG#08015D>,八木尾山,新潟県南魚沼郡湯沢町<JCG#08015D>
JA/NI-149,36.9713,138.1024,8,1430,Fudouyama,Itoigawa-city<JCC#0816>Myoko-city<JCC#0827>Joetsu-city<JCC#0822>,不動山,新潟県糸魚川市<JCC#0816>新潟県妙高市<JCC#0827>新潟県上越市<JCC#0822>
JA/NI-150,37.5219,139.4259,8,1386,Mikaguradake,Higashikambara-gun<JCG#08013E>,御神楽岳,新潟県東蒲原郡阿賀町<JCG#08013E>
JA/NI-151,38.361,139.7617,8,1331,Masugatayama,Murakami-city<JCC#0812>Tsuruoka-city<JCC#0503>,枡形山,新潟県村上市<JCC#0812>山形県鶴岡市<JCC#0503>
JA/NI-152,37.8031,139.6182,8,1237,Jikkiramatsu,Higashikambara-gun<JCG#08013E>,ジッキラ松,新潟県東蒲原郡阿賀町<JCG#08013E>
JA/NI-153,38.2414,139.8158,8,1216,Sutodoyama,Murakami-city<JCC#0812>,巣戸々山,新潟県村上市<JCC#0812>
JA/NI-154,36.9409,137.8218,8,1188,Myoujyouyama,Itoigawa-city<JCC#0816>,明星山,新潟県糸魚川市<JCC#0816>
JA/NI-155,37.1361,139.2151,8,1183,Near_Deai,Uonuma-city<JCC#0825>,出合（三角点近傍）,新潟県魚沼市<JCC#0825>
JA/NI-156,37.839,139.5072,8,1169,P1169,Shibata-city<JCC#0806>,点1169,新潟県新発田市<JCC#0806>
JA/NI-157,37.0723,138.9856,8,1143,Takakurayama,Minamiuonuma-city<JCC#0826>,高倉山,新潟県南魚沼市<JCC#0826>
JA/NI-158,37.513,139.303,8,1120,Near_Uodomeyama,Higashikambara-gun<JCG#08013E>,魚止山近傍,新潟県東蒲原郡阿賀町<JCG#08013E>
JA/NI-159,37.5398,139.2824,8,1110,Wariiwayama,Gosen-city<JCC#0818>,割岩山,新潟県五泉市<JCC#0818>
JA/NI-160,37.0333,139.0091,6,1081,Near_Ichinowata,Minamiuonuma-city<JCC#0826>,一ノ綿（三角点近傍）,新潟県南魚沼市<JCC#0826>
JA/NI-161,37.9554,139.5624,6,970,Near_Tossakamine,Tainai-city<JCC#0828>Iwafune-gun<JCG#08001C>,鳥坂峰近傍,新潟県胎内市<JCC#0828>新潟県岩船郡関川村<JCG#08001C>
JA/NI-162,36.9742,138.8547,6,946,Ubaminokashira,Minamiuonuma-city<JCC#0826>,姥見ノ頭,新潟県南魚沼市<JCC#0826>
JA/NI-163,37.6947,139.2711,6,910,Sangoroyama,Gosen-city<JCC#0818>,三五郎山,新潟県五泉市<JCC#0818>
JA/NI-164,37.4775,139.2194,6,879,Koumyouzan,Sanjo-city<JCC#0804>,光明山,新潟県三条市<JCC#0804>
JA/NI-166,38.3969,139.5333,4,795,Budouyama,Murakami-city<JCC#0812>,蒲萄山,新潟県村上市<JCC#0812>
JA/NI-167,37.7288,139.6001,4,788,Takaitouge,Higashikambara-gun<JCG#08013E>,高井峠,新潟県東蒲原郡阿賀町<JCG#08013E>
JA/NI-168,38.3691,139.6708,4,776,Komagatake,Murakami-city<JCC#0812>,駒ヶ岳,新潟県村上市<JCC#0812>
JA/NI-169,38.278,139.6899,4,771,Engoyama,Murakami-city<JCC#0812>,円吾山,新潟県村上市<JCC#0812>
JA/NI-170,38.4291,139.6503,4,693,P693,Murakami-city<JCC#0812>,点693,新潟県村上市<JCC#0812>
JA/NI-171,38.0513,139.6486,2,630,Wakabunayama,Iwafune-gun<JCG#08001C>,若撫山,新潟県岩船郡関川村<JCG#08001C>
JA/NI-172,37.6922,139.5269,2,630,P630,Higashikambara-gun<JCG#08013E>,点630,新潟県東蒲原郡阿賀町<JCG#08013E>
JA/NI-173,36.9959,137.7562,2,590,Itagamine,Itoigawa-city<JCC#0816>,板ケ峰(三角点),新潟県糸魚川市<JCC#0816>
JA/NI-174,38.165,139.5795,2,580,P580,Iwafune-gun<JCG#08001C>Murakami-city<JCC#0812>,点580,新潟県岩船郡関川村<JCG#08001C>新潟県村上市<JCC#0812>
JA/NI-175,38.2601,139.6765,2,556,P556,Murakami-city<JCC#0812>,点556,新潟県村上市<JCC#0812>
JA/NI-176,38.3922,139.6328,2,545,P545,Murakami-city<JCC#0812>,点545,新潟県村上市<JCC#0812>
JA/NI-177,38.4513,139.6343,2,542,P542,Murakami-city<JCC#0812>,点542,新潟県村上市<JCC#0812>
JA/NI-178,38.3505,139.6219,2,500,Near_Hirokura,Murakami-city<JCC#0812>,広倉（三角点近傍）,新潟県村上市<JCC#0812>
JA/NI-179,37.2603,138.4884,1,478,Shiroyama,Joetsu-city<JCC#0822>,城山,新潟県上越市<JCC#0822>
JA/NI-180,37.672,139.5093,1,466,Mochikurayama,Higashikambara-gun<JCG#08013E>,餅倉山,新潟県東蒲原郡阿賀町<JCG#08013E>
JA/NI-181,37.6542,139.2367,1,390,P390,Gosen-city<JCC#0818>,点390,新潟県五泉市<JCC#0818>
JA/NI-182,38.4741,139.5937,1,386,P386,Murakami-city<JCC#0812>,点386,新潟県村上市<JCC#0812>
JA/NI-183,37.5636,139.1076,1,350,P350,Sanjo-city<JCC#0804>,点350,新潟県三条市<JCC#0804>
JA/NI-184,37.1407,138.4509,1,343,Shiroyama,Joetsu-city<JCC#0822>,城山,新潟県上越市<JCC#0822>
JA/NI-185,37.2776,138.8112,1,336,Yamamotoyama,Ojiya-city<JCC#0808>,山本山,新潟県小千谷市<JCC#0808>
JA/NI-186,37.6311,139.1359,1,321,Iriyama,Kamo-city<JCC#0809>Gosen-city<JCC#0818>,入山(三角点),新潟県加茂市<JCC#0809>新潟県五泉市<JCC#0818>
JA/NI-187,37.5234,139.0609,1,301,Narayamatouge,Sanjo-city<JCC#0804>Nagaoka-city<JCC#0802>,楢山峠(三角点),新潟県三条市<JCC#0804>新潟県長岡市<JCC#0802>
JA/NI-188,37.7026,139.3746,1,291,Toishiyama,Higashikambara-gun<JCG#08013E>,砥石山(三角点),新潟県東蒲原郡阿賀町<JCG#08013E>
JA/NI-189,37.9747,139.4001,1,276,Toyanomine,Shibata-city<JCC#0806>,鳥屋ノ峰,新潟県新発田市<JCC#0806>
JA/NI-190,38.4538,139.2386,1,265,Koshibayama,Iwafune-gun<JCG#08001B>,小柴山,新潟県岩船郡粟島浦村@粟島<JCG#08001B>
JA/NI-191,37.727632,139.110523,1,281,Roukamine,Akiha-ku<JCC#080105>Gosen-city<JCC#0818>,ろう火峰,新潟県新潟市秋葉区<JCC#080105>新潟県五泉市<JCC#0818>
JA/NN-001,36.2892,137.648,10,3190,Okuhotakadake,Matsumoto-city<JCC#0902>Takayama-city<JCC#1903>,奥穂高岳,長野県松本市<JCC#0902>岐阜県高山市<JCC#1903>
JA/NN-002,36.342,137.6476,10,3180,Yarigatake,Matsumoto-city<JCC#0902>Omachi-city<JCC#0912>,槍ヶ岳,長野県松本市<JCC#0902>長野県大町市<JCC#0912>
JA/NN-003,36.3025,137.652,10,3106,Kitahotakadake,Matsumoto-city<JCC#0902>Takayama-city<JCC#1903>,北穂高岳,長野県松本市<JCC#0902>岐阜県高山市<JCC#1903>
JA/NN-004,36.282,137.6606,10,3090,Maehotakadake,Matsumoto-city<JCC#0902>,前穂高岳,長野県松本市<JCC#0902>
JA/NN-005,35.893,137.4804,10,3067,Ontakesan/Kengamine,Kiso-gun<JCG#09004L>Kiso-gun<JCG#09004B>,御嶽山(剣ヶ峰),長野県木曽郡木曽町<JCG#09004L>長野県木曽郡王滝村<JCG#09004B>
JA/NN-006,35.7896,137.8045,10,2956,Komagatake,Kiso-gun<JCG#09004A>Kiso-gun<JCG#09004L>Kamiina-gun<JCG#09001C>,駒ヶ岳,長野県木曽郡上松町<JCG#09004A>長野県木曽郡木曽町<JCG#09004L>長野県上伊那郡宮田村<JCG#09001C>
JA/NN-007,36.7585,137.7586,10,2932,Shiroumadake,Kitaazumi-gun<JCG#09005F>Shimoniikawa-gun<JCG#28003A>,白馬岳,長野県北安曇郡白馬村<JCG#09005F>富山県下新川郡朝日町<JCG#28003A>
JA/NN-009,36.4327,137.6379,10,2924,Noguchigoroudake,Omachi-city<JCC#0912>Toyama-city<JCC#2801>,野口五郎岳,長野県大町市<JCC#0912>富山県富山市<JCC#2801>
JA/NN-010,36.365,137.7011,10,2922,Otenshodake,Azumino-city<JCC#0921>Matsumoto-city<JCC#0902>Omachi-city<JCC#0912>,大天井岳,長野県安曇野市<JCC#0921>長野県松本市<JCC#0902>長野県大町市<JCC#0912>
JA/NN-011,36.7313,137.7552,10,2903,Yarigatake,Kitaazumi-gun<JCG#09005F>Kurobe-city<JCC#2807>,鑓ヶ岳,長野県北安曇郡白馬村<JCG#09005F>富山県黒部市<JCC#2807>
JA/NN-012,36.6245,137.7471,10,2889,Kashimayarigatake,Omachi-city<JCC#0912>Nakaniikawa-gun<JCG#28004C>Kurobe-city<JCC#2807>,鹿島槍ヶ岳,長野県大町市<JCC#0912>富山県中新川郡立山町<JCG#28004C>富山県黒部市<JCC#2807>
JA/NN-013,35.719,137.8171,10,2864,Utsugidake,Komagane-city<JCC#0910>Kiso-gun<JCG#09004C>,空木岳,長野県駒ヶ根市<JCC#0910>長野県木曽郡大桑村<JCG#09004C>
JA/NN-014,36.3255,137.7276,10,2857,Jyounendake,Azumino-city<JCC#0921>Matsumoto-city<JCC#0902>,常念岳,長野県安曇野市<JCC#0921>長野県松本市<JCC#0902>
JA/NN-015,35.4286,138.1212,10,2818,Usagidake,Iida-city<JCC#0905>Aoi-ku<JCC#180101>,兎岳,長野県飯田市<JCC#0905>静岡県静岡市葵区<JCC#180101>
JA/NN-016,36.6584,137.7527,10,2814,Goryuudake,Omachi-city<JCC#0912>Kurobe-city<JCC#2807>,五龍岳,長野県大町市<JCC#0912>富山県黒部市<JCC#2807>
JA/NN-017,35.7393,137.8033,10,2778,Kumazawadake,Kiso-gun<JCG#09004C>Komagane-city<JCC#0910>,熊沢岳,長野県木曽郡大桑村<JCG#09004C>長野県駒ヶ根市<JCC#0910>
JA/NN-018,36.3433,137.6841,10,2769,Akaiwadake,Matsumoto-city<JCC#0902>Omachi-city<JCC#0912>,赤岩岳,長野県松本市<JCC#0902>長野県大町市<JCC#0912>
JA/NN-019,36.4068,137.7128,10,2763,Tsubakurodake,Azumino-city<JCC#0921>Omachi-city<JCC#0912>,燕岳,長野県安曇野市<JCC#0921>長野県大町市<JCC#0912>
JA/NN-020,36.562,137.6876,10,2678,Akazawadake,Omachi-city<JCC#0912>Nakaniikawa-gun<JCG#28004C>,赤沢岳,長野県大町市<JCC#0912>富山県中新川郡立山町<JCG#28004C>
JA/NN-021,36.2874,137.7261,10,2677,Chyougatake,Matsumoto-city<JCC#0902>Azumino-city<JCC#0921>,蝶ヶ岳,長野県松本市<JCC#0902>長野県安曇野市<JCC#0921>
JA/NN-022,36.5883,137.7509,10,2670,Jiigatake,Omachi-city<JCC#0912>Nakaniikawa-gun<JCG#28004C>,爺ヶ岳,長野県大町市<JCC#0912>富山県中新川郡立山町<JCG#28004C>
JA/NN-023,36.4473,137.736,10,2647,Gakidake,Omachi-city<JCC#0912>,餓鬼岳,長野県大町市<JCC#0912>
JA/NN-024,36.0192,138.3553,10,2646,Tengudake,Chino-city<JCC#0914>,天狗岳,長野県茅野市<JCC#0914>
JA/NN-025,36.2212,137.6406,10,2646,Kasumizawadake,Matsumoto-city<JCC#0902>,霞沢岳,長野県松本市<JCC#0902>
JA/NN-026,36.4065,138.523,10,2568,Asamayama,Kitasaku-gun<JCG#09006B>Agatsuma-gun<JCG#16001F>,浅間山,長野県北佐久郡軽井沢町<JCG#09006B>群馬県吾妻郡嬬恋村<JCG#16001F>
JA/NN-027,36.2993,137.6783,10,2565,Byoubunoatama,Matsumoto-city<JCC#0902>,屏風ノ頭,長野県松本市<JCC#0902>
JA/NN-028,36.3806,137.6506,10,2554,Ioudake,Omachi-city<JCC#0912>,硫黄岳,長野県大町市<JCC#0912>
JA/NN-029,36.5177,137.7056,10,2551,Kitakuzudake,Omachi-city<JCC#0912>Toyama-city<JCC#2801>,北葛岳,長野県大町市<JCC#0912>富山県富山市<JCC#2801>
JA/NN-030,36.16,137.5804,10,2532,Jyukkokusan,Matsumoto-city<JCC#0902>Takayama-city<JCC#1903>,十石山,長野県松本市<JCC#0902>岐阜県高山市<JCC#1903>
JA/NN-031,36.1037,138.2951,10,2530,Tateshinayama,Kitasaku-gun<JCG#09006E>Chino-city<JCC#0914>,蓼科山,長野県北佐久郡立科町<JCG#09006E>長野県茅野市<JCC#0914>
JA/NN-032,36.0875,138.3201,10,2480,KitaYokodake,Minamisaku-gun<JCG#09017I>Chino-city<JCC#0914>,北横岳,長野県南佐久郡佐久穂町<JCG#09017I>長野県茅野市<JCC#0914>
JA/NN-033,35.485,138.0691,10,2474,Okuchausuyama,Shimoina-gun<JCG#09008C>,奥茶臼山,長野県下伊那郡大鹿村<JCG#09008C>
JA/NN-034,36.5146,137.6771,10,2459,Funakubodake,Omachi-city<JCC#0912>Toyama-city<JCC#2801>,船窪岳,長野県大町市<JCC#0912>富山県富山市<JCC#2801>
JA/NN-035,36.0866,137.7549,10,2446,Hachimoriyama,Matsumoto-city<JCC#0902>Kiso-gun<JCG#09004E>Higashichikuma-gun<JCG#09015B>,鉢盛山,長野県松本市<JCC#0902>長野県木曽郡木祖村<JCG#09004E>長野県東筑摩郡朝日村<JCG#09015B>
JA/NN-036,35.9094,138.6123,10,2418,Ogawayama,Minamisaku-gun<JCG#09017A>Hokuto-city<JCC#1709>,小川山,長野県南佐久郡川上村<JCG#09017A>山梨県北杜市<JCC#1709>
JA/NN-037,36.0753,138.3315,10,2403,Shimagareyama,Minamisaku-gun<JCG#09017I>Chino-city<JCC#0914>,縞枯山,長野県南佐久郡佐久穂町<JCG#09017I>長野県茅野市<JCC#0914>
JA/NN-038,36.2078,137.7119,10,2387,Kotakezawayama,Matsumoto-city<JCC#0902>,小嵩沢山,長野県松本市<JCC#0902>
JA/NN-039,35.8481,137.8101,10,2375,Oodanairiyama,Kiso-gun<JCG#09004L>Shiojiri-city<JCC#0915>,大棚入山,長野県木曽郡木曽町<JCG#09004L>長野県塩尻市<JCC#0915>
JA/NN-040,36.0693,137.7356,10,2374,Kohachimoriyama,Matsumoto-city<JCC#0902>Kiso-gun<JCG#09004E>,小鉢盛山,長野県松本市<JCC#0902>長野県木曽郡木祖村<JCG#09004E>
JA/NN-041,35.6304,137.7744,10,2363,Anpeijiyama,Iida-city<JCC#0905>Kiso-gun<JCG#09004C>,安平路山,長野県飯田市<JCC#0905>長野県木曽郡大桑村<JCG#09004C>
JA/NN-042,36.8001,138.052,10,2353,Takatsumayama,Nagano-city<JCC#0901>Myoko-city<JCC#0827>,高妻山,長野県長野市<JCC#0901>新潟県妙高市<JCC#0827>
JA/NN-043,36.7529,138.5678,10,2341,Iwasugeyama/Uraiwasugeyama,Shimotakai-gun<JCG#09009C>,岩菅山(裏岩菅山),長野県下高井郡山ノ内町<JCG#09009C>
JA/NN-044,35.6553,137.8271,10,2327,Ikenodairasan,Kamiina-gun<JCG#09001D>,池ノ平山,長野県上伊那郡飯島町<JCG#09001D>
JA/NN-045,36.6689,138.5259,10,2307,Yokoteyama,Shimotakai-gun<JCG#09009C>Agatsuma-gun<JCG#16001H>,横手山,長野県下高井郡山ノ内町<JCG#09009C>群馬県吾妻郡中之条町<JCG#16001H>
JA/NN-046,35.9128,137.8627,10,2296,Kyougatake,Kamiina-gun<JCG#09001F>Kamiina-gun<JCG#09001A>,経ヶ岳,長野県上伊那郡辰野町<JCG#09001F>長野県上伊那郡南箕輪村<JCG#09001A>
JA/NN-047,35.6848,138.1629,10,2293,Kosetoyama,Ina-city<JCC#0909>,小瀬戸山,長野県伊那市<JCC#0909>
JA/NN-048,36.3956,137.7625,10,2283,Ariakeyama,Azumino-city<JCC#0921>Kitaazumi-gun<JCG#09005B>,有明山,長野県安曇野市<JCC#0921>長野県北安曇郡松川村<JCG#09005B>
JA/NN-049,35.8144,138.1748,10,2267,Shiroiwadake,Suwa-gun<JCG#09011C>Ina-city<JCC#0909>,白岩岳,長野県諏訪郡富士見町<JCG#09011C>長野県伊那市<JCC#0909>
JA/NN-050,35.6487,138.1025,10,2243,Futagoyama,Shimoina-gun<JCG#09008C>Ina-city<JCC#0909>,二児山,長野県下伊那郡大鹿村<JCG#09008C>長野県伊那市<JCC#0909>
JA/NN-051,36.4193,138.4472,10,2227,Kagonotoyama/Higashikagonotoyama,Toumi-city<JCC#0920>Agatsuma-gun<JCG#16001F>,篭ノ登山(東篭ノ登山),長野県東御市<JCC#0920>群馬県吾妻郡嬬恋村<JCG#16001F>
JA/NN-052,36.7723,138.6706,10,2192,Saburyuuyama,Shimominochi-gun<JCG#09010B>Minamiuonuma-gun<JCG#08015D>,佐武流山,長野県下水内郡栄村<JCG#09010B>新潟県南魚沼郡湯沢町<JCG#08015D>
JA/NN-053,35.443,137.5979,10,2191,Enasan,Shimoina-gun<JCG#09008A>Nakatsugawa-city<JCC#1906>,恵那山,長野県下伊那郡阿智村<JCG#09008A>岐阜県中津川市<JCC#1906>
JA/NN-054,36.2107,137.5733,10,2188,Shirataniyama,Matsumoto-city<JCC#0902>Takayama-city<JCC#1903>,白谷山,長野県松本市<JCC#0902>岐阜県高山市<JCC#1903>
JA/NN-055,36.72,138.598,10,2080,Ootakayama,Shimotakai-gun<JCG#09009C>,大高山,長野県下高井郡山ノ内町<JCG#09009C>
JA/NN-056,35.7815,138.1878,10,2142,Yokodake,Ina-city<JCC#0909>Suwa-gun<JCG#09011C>,横岳,長野県伊那市<JCC#0909>長野県諏訪郡富士見町<JCG#09011C>
JA/NN-057,36.0266,137.599,10,2121,Kamagamine,Matsumoto-city<JCC#0902>Kiso-gun<JCG#09004L>Takayama-city<JCC#1903>,鎌ヶ峰,長野県松本市<JCC#0902>長野県木曽郡木曽町<JCG#09004L>岐阜県高山市<JCC#1903>
JA/NN-058,36.0341,138.6069,10,2112,Ogurasan,Minamisaku-gun<JCG#09017D>Minamisaku-gun<JCG#09017B>,御座山,長野県南佐久郡南相木村<JCG#09017D>長野県南佐久郡北相木村<JCG#09017B>
JA/NN-059,36.4348,138.4009,10,2101,Yunomaruyama,Ueda-city<JCC#0903>Toumi-city<JCC#0920>Agatsuma-gun<JCG#16001F>,湯ノ丸山,長野県上田市<JCC#0903>長野県東御市<JCC#0920>群馬県吾妻郡嬬恋村<JCG#16001F>
JA/NN-060,36.6767,138.4815,10,2076,Kasagatake,Shimotakai-gun<JCG#09009C>Kamitakai-gun<JCG#09002B>,笠ヶ岳,長野県下高井郡山ノ内町<JCG#09009C>長野県上高井郡高山村<JCG#09002B>
JA/NN-061,36.7619,138.0301,10,2053,Nishidake,Nagano-city<JCC#0901>,西岳,長野県長野市<JCC#0901>
JA/NN-062,36.8135,138.1272,10,2053,Kurohimeyama,Kamiminochi-gun<JCG#09003D>,黒姫山,長野県上水内郡信濃町<JCG#09003D>
JA/NN-063,36.2431,137.788,10,2051,Kurosawayama,Matsumoto-city<JCC#0902>Azumino-city<JCC#0921>,黒沢山,長野県松本市<JCC#0902>長野県安曇野市<JCC#0921>
JA/NN-064,36.8174,138.1169,10,2046,Osutakayama(Kokurohime),Kamiminochi-gun<JCG#09003D>,御巣鷹山(小黒姫),長野県上水内郡信濃町<JCG#09003D>
JA/NN-065,35.9761,137.6969,10,2040,Oosasazawayama,Kiso-gun<JCG#09004L>Kiso-gun<JCG#09004E>,大笹沢山,長野県木曽郡木曽町<JCG#09004L>長野県木曽郡木祖村<JCG#09004E>
JA/NN-066,36.8392,138.584,10,2038,Torikabutoyama,Shimominochi-gun<JCG#09010B>,鳥甲山,長野県下水内郡栄村<JCG#09010B>
JA/NN-067,36.2258,138.1074,10,2034,Utsukushigahara/Ougatou,Matsumoto-city<JCC#0902>Ueda-city<JCC#0903>,美ヶ原(王ヶ頭),長野県松本市<JCC#0902>長野県上田市<JCC#0903>
JA/NN-068,36.0149,137.6781,10,2033,Tochibora,Kiso-gun<JCG#09004L>Matsumoto-city<JCC#0902>,橡洞(三角点),長野県木曽郡木曽町<JCG#09004L>長野県松本市<JCC#0902>
JA/NN-069,36.7619,138.5105,10,2010,Yakebitaiyama,Shimotakai-gun<JCG#09009C>,焼額山,長野県下高井郡山ノ内町<JCG#09009C>
JA/NN-070,35.7854,137.397,10,1982,Kohideyama,Kiso-gun<JCG#09004B>Nakatsugawa-city<JCC#1906>,小秀山,長野県木曽郡王滝村<JCG#09004B>岐阜県中津川市<JCC#1906>
JA/NN-071,35.9918,138.6888,10,1979,Takamagaharayama,Minamisaku-gun<JCG#09017A>Minamisaku-gun<JCG#09017D>Tano-gun<JCG#16009F>,高天原山,長野県南佐久郡川上村<JCG#09017A>長野県南佐久郡南相木村<JCG#09017D>群馬県多野郡上野村<JCG#16009F>
JA/NN-072,36.902,137.9626,10,1963,Amakazariyama,Kitaazumi-gun<JCG#09005E>Itoigawa-city<JCC#0816>,雨飾山,長野県北安曇郡小谷村<JCG#09005E>新潟県糸魚川市<JCC#0816>
JA/NN-073,35.9433,137.8298,10,1961,Bouzudake,Kamiina-gun<JCG#09001F>Shiojiri-city<JCC#0915>,坊主岳近傍,長野県上伊那郡辰野町<JCG#09001F>長野県塩尻市<JCC#0915>
JA/NN-074,35.3983,137.634,10,1940,P1940,Shimoina-gun<JCG#09008A>Shimoina-gun<JCG#09008L>Nakatsugawa-city<JCC#1906>,点1940(波合山(三角点)近傍),長野県下伊那郡阿智村<JCG#09008A>長野県下伊那郡平谷村<JCG#09008L>岐阜県中津川市<JCC#1906>
JA/NN-075,36.1631,138.059,10,1929,Hachibuseyama,Okaya-city<JCC#0904>,鉢伏山,長野県岡谷市<JCC#0904>
JA/NN-076,36.1029,138.1967,10,1925,Kirigamine/Kurumayama,Chino-city<JCC#0914>Suwa-city<JCC#0906>,霧ヶ峰(車山),長野県茅野市<JCC#0914>長野県諏訪市<JCC#0906>
JA/NN-077,36.7394,138.1337,10,1917,Iidunayama,Nagano-city<JCC#0901>,飯縄山(飯綱山),長野県長野市<JCC#0901>
JA/NN-079,35.492,137.9902,10,1889,Kimenzan,Iida-city<JCC#0905>Shimoina-gun<JCG#09008Q>,鬼面山,長野県飯田市<JCC#0905>長野県下伊那郡豊丘村<JCG#09008Q>
JA/NN-080,36.1662,138.1285,10,1887,Mitsuminesan,Chiisagata-gun<JCG#09012H>Suwa-gun<JCG#09011A>Matsumoto-city<JCC#0902>,三峰山,長野県小県郡長和町<JCG#09012H>長野県諏訪郡下諏訪町<JCG#09011A>長野県松本市<JCC#0902>
JA/NN-081,35.9917,138.569,10,1882,Tenguyama,Minamisaku-gun<JCG#09017D>Minamisaku-gun<JCG#09017A>,天狗山,長野県南佐久郡南相木村<JCG#09017D>長野県南佐久郡川上村<JCG#09017A>
JA/NN-082,35.7083,137.7338,10,1867,Itoseyama,Kiso-gun<JCG#09004C>,糸瀬山,長野県木曽郡大桑村<JCG#09004C>
JA/NN-083,36.8575,138.551,10,1853,Daikurayama,Shimominochi-gun<JCG#09010B>Shimotakai-gun<JCG#09009A>,台倉山,長野県下水内郡栄村<JCG#09010B>長野県下高井郡木島平村<JCG#09009A>
JA/NN-084,36.7705,137.9647,10,1849,Higashiyama,Kitaazumi-gun<JCG#09005E>Nagano-city<JCC#0901>,東山,長野県北安曇郡小谷村<JCG#09005E>長野県長野市<JCC#0901>
JA/NN-085,35.7134,137.4872,10,1840,Idenokoujiyama,Kiso-gun<JCG#09004C>Nakatsugawa-city<JCC#1906>,井出ノ小路山,長野県木曽郡大桑村<JCG#09004C>岐阜県中津川市<JCC#1906>
JA/NN-086,36.8136,138.0878,10,1828,Sadoyama,Nagano-city<JCC#0901>,佐渡山,長野県長野市<JCC#0901>
JA/NN-087,35.991,138.6011,10,1822,Omihakayama,Minamisaku-gun<JCG#09017A>Minamisaku-gun<JCG#09017D>,御陵山,長野県南佐久郡川上村<JCG#09017A>長野県南佐久郡南相木村<JCG#09017D>
JA/NN-088,36.0586,137.6668,10,1814,Ookubo,Matsumoto-city<JCC#0902>,大久保(三角点),長野県松本市<JCC#0902>
JA/NN-089,36.1301,138.1544,10,1798,Washigamine,Suwa-gun<JCG#09011A>Chiisagata-gun<JCG#09012H>,鷲ヶ峰,長野県諏訪郡下諏訪町<JCG#09011A>長野県小県郡長和町<JCG#09012H>
JA/NN-090,36.0161,137.79,10,1785,Misokawa,Kiso-gun<JCG#09004E>,味噌川(三角点),長野県木曽郡木祖村<JCG#09004E>
JA/NN-091,36.8107,138.4951,10,1747,Takappyouyama,Shimotakai-gun<JCG#09009A>,高標山,長野県下高井郡木島平村<JCG#09009A>
JA/NN-092,35.483,137.6297,10,1739,Fujimidai,Shimoina-gun<JCG#09008A>Nakatsugawa-city<JCC#1906>,富士見台,長野県下伊那郡阿智村<JCG#09008A>岐阜県中津川市<JCC#1906>
JA/NN-093,35.6751,138.0437,10,1738,Kitagawa,Komagane-city<JCC#0910>Shimoina-gun<JCG#09008C>,北川(三角点),長野県駒ヶ根市<JCC#0910>長野県下伊那郡大鹿村<JCG#09008C>
JA/NN-094,36.1119,138.5477,10,1718,Moraisan,Minamisaku-gun<JCG#09017C>Minamisaku-gun<JCG#09017I>,茂来山,長野県南佐久郡小海町<JCG#09017C>長野県南佐久郡佐久穂町<JCG#09017I>
JA/NN-095,35.7547,137.5333,10,1717,Nishimatayama,Kiso-gun<JCG#09004B>Kiso-gun<JCG#09004A>,西股山,長野県木曽郡王滝村<JCG#09004B>長野県木曽郡上松町<JCG#09004A>
JA/NN-096,35.4091,137.9397,10,1703,Kanamoriyama,Iida-city<JCC#0905>,金森山,長野県飯田市<JCC#0905>
JA/NN-097,35.7658,137.4348,10,1697,Okegasawa,Kiso-gun<JCG#09004B>Nakatsugawa-city<JCC#1906>,桶ケ沢(三角点),長野県木曽郡王滝村<JCG#09004B>岐阜県中津川市<JCC#1906>
JA/NN-098,35.745,138.052,10,1681,Tokurayama/Inafuji,Komagane-city<JCC#0910>Ina-city<JCC#0909>,戸倉山(伊那富士),長野県駒ヶ根市<JCC#0910>長野県伊那市<JCC#0909>
JA/NN-099,35.5925,137.6444,10,1679,Nagisodake,Kiso-gun<JCG#09004J>,南木曽岳,長野県木曽郡南木曽町<JCG#09004J>
JA/NN-100,36.8548,138.49,10,1676,Hakkenzan,Shimotakai-gun<JCG#09009A>,八剣山(三角点),長野県下高井郡木島平村<JCG#09009A>
JA/NN-101,36.1585,138.1937,10,1670,Takamatsu,Chiisagata-gun<JCG#09012H>,高松(三角点),長野県小県郡長和町<JCG#09012H>
JA/NN-102,35.8071,137.3314,10,1669,Hakoiwayama,Kiso-gun<JCG#09004B>Gero-city<JCC#1920>,箱岩山(三角点),長野県木曽郡王滝村<JCG#09004B>岐阜県下呂市<JCC#1920>
JA/NN-103,35.3414,137.6882,10,1664,Jatougeyama,Shimoina-gun<JCG#09008A>Shimoina-gun<JCG#09008N>Shimoina-gun<JCG#09008L>,蛇峠山,長野県下伊那郡阿智村<JCG#09008A>長野県下伊那郡阿南町<JCG#09008N>長野県下伊那郡平谷村<JCG#09008L>
JA/NN-104,35.9618,138.5833,10,1664,Oomiyama,Minamisaku-gun<JCG#09017A>,大深山(三角点),長野県南佐久郡川上村<JCG#09017A>
JA/NN-105,35.7943,137.4624,10,1659,Warisawa,Kiso-gun<JCG#09004B>,割沢(三角点),長野県木曽郡王滝村<JCG#09004B>
JA/NN-106,35.2632,137.8949,10,1653,Kumabushiyama,Iida-city<JCC#0905>Shimoina-gun<JCG#09008P>,熊伏山,長野県飯田市<JCC#0905>長野県下伊那郡天龍村<JCG#09008P>
JA/NN-107,36.8978,138.4867,10,1650,Kenashiyama,Shimotakai-gun<JCG#09009B>,毛無山,長野県下高井郡野沢温泉村<JCG#09009B>
JA/NN-108,35.9675,138.0933,10,1650,Moriyasan,Suwa-city<JCC#0906>Ina-city<JCC#0909>,守屋山,長野県諏訪市<JCC#0906>長野県伊那市<JCC#0909>
JA/NN-109,36.5124,138.3055,10,1649,Oomatsuyama,Ueda-city<JCC#0903>,大松山,長野県上田市<JCC#0903>
JA/NN-110,36.4646,138.3705,10,1644,Kadoma,Ueda-city<JCC#0903>,角間(三角点),長野県上田市<JCC#0903>
JA/NN-111,35.5528,137.7041,10,1636,Hagetake,Iida-city<JCC#0905>Shimoina-gun<JCG#09008A>,兀岳,長野県飯田市<JCC#0905>長野県下伊那郡阿智村<JCG#09008A>
JA/NN-112,36.0128,138.5864,10,1631,Mineosan,Minamisaku-gun<JCG#09017D>,峰雄山,長野県南佐久郡南相木村<JCG#09017D>
JA/NN-113,36.3332,138.0629,10,1626,Iriyama,Matsumoto-city<JCC#0902>,入山,長野県松本市<JCC#0902>
JA/NN-114,36.4848,137.7949,10,1623,Kuwanomine,Omachi-city<JCC#0912>,鍬ノ峰,長野県大町市<JCC#0912>
JA/NN-115,36.1303,137.6881,10,1570,Hokurayama,Matsumoto-city<JCC#0902>,保倉山,長野県松本市<JCC#0902>
JA/NN-116,36.8623,137.9549,10,1570,Oonagiyama,Kitaazumi-gun<JCG#09005E>,大渚山,長野県北安曇郡小谷村<JCG#09005E>
JA/NN-117,35.8529,137.5726,10,1558,Saburouzawa,Kiso-gun<JCG#09004L>Kiso-gun<JCG#09004B>,三郎沢(三角点),長野県木曽郡木曽町<JCG#09004L>長野県木曽郡王滝村<JCG#09004B>
JA/NN-118,35.7161,137.5928,10,1558,Aterayama,Kiso-gun<JCG#09004C>Kiso-gun<JCG#09004A>,阿寺山,長野県木曽郡大桑村<JCG#09004C>長野県木曽郡上松町<JCG#09004A>
JA/NN-119,35.5495,137.7838,10,1535,Kazakoshiyama/Gongenyama,Iida-city<JCC#0905>,風越山(権現山),長野県飯田市<JCC#0905>
JA/NN-120,35.9133,138.0605,10,1528,Otomiyama,Ina-city<JCC#0909>,音見山,長野県伊那市<JCC#0909>
JA/NN-121,35.7919,137.6628,10,1502,Daigamine,Kiso-gun<JCG#09004L>Kiso-gun<JCG#09004A>,台ヶ峰,長野県木曽郡木曽町<JCG#09004L>長野県木曽郡上松町<JCG#09004A>
JA/NN-122,35.5422,137.7404,8,1499,Oshinozawa,Iida-city<JCC#0905>,押ノ沢(三角点),長野県飯田市<JCC#0905>
JA/NN-123,35.916,137.8057,8,1492,Ookubo,Kiso-gun<JCG#09004L>Shiojiri-city<JCC#0915>,大久保(三角点),長野県木曽郡木曽町<JCG#09004L>長野県塩尻市<JCC#0915>
JA/NN-124,36.5462,138.3235,8,1485,Shiramizu,Ueda-city<JCC#0903>Suzaka-city<JCC#0907>,白水(三角点),長野県上田市<JCC#0903>長野県須坂市<JCC#0907>
JA/NN-125,36.1398,138.5933,8,1484,Hirokoyayama,Minamisaku-gun<JCG#09017I>,広古屋(三角点),長野県南佐久郡佐久穂町<JCG#09017I>
JA/NN-126,35.7514,137.6542,8,1478,Masu,Kiso-gun<JCG#09004A>Kiso-gun<JCG#09004C>,真巣(三角点),長野県木曽郡上松町<JCG#09004A>長野県木曽郡大桑村<JCG#09004C>
JA/NN-127,35.5316,137.6741,8,1474,Kamiseinaiji,Shimoina-gun<JCG#09008A>Kiso-gun<JCG#09004J>,上清内路(三角点),長野県下伊那郡阿智村<JCG#09008A>長野県木曽郡南木曽町<JCG#09004J>
JA/NN-128,35.7789,137.5805,8,1467,Ichinokurasawa,Kiso-gun<JCG#09004B>,一ノ倉沢(三角点),長野県木曽郡王滝村<JCG#09004B>
JA/NN-129,35.315,137.6747,8,1466,Senbondachi,Shimoina-gun<JCG#09008L>,千本立,長野県下伊那郡平谷村<JCG#09008L>
JA/NN-130,35.4159,137.6788,8,1464,Sangaimine,Shimoina-gun<JCG#09008A>,三階峰,長野県下伊那郡阿智村<JCG#09008A>
JA/NN-131,36.5042,138.2701,8,1459,Naruo,Ueda-city<JCC#0903>,鳴尾(三角点),長野県上田市<JCC#0903>
JA/NN-132,35.8208,137.7204,8,1452,Uematsu,Kiso-gun<JCG#09004A>Kiso-gun<JCG#09004L>,上松(三角点),長野県木曽郡上松町<JCG#09004A>長野県木曽郡木曽町<JCG#09004L>
JA/NN-133,35.3926,137.7027,8,1450,Heizoubora,Shimoina-gun<JCG#09008A>,平造洞(三角点),長野県下伊那郡阿智村<JCG#09008A>
JA/NN-134,36.4842,138.0214,8,1447,Hijiriyama,Nagano-city<JCC#0901>Higashichikuma-gun<JCG#09015C>,聖山,長野県長野市<JCC#0901>長野県東筑摩郡麻績村<JCG#09015C>
JA/NN-135,35.6741,137.9835,8,1445,Jinbagatayama,Kamiina-gun<JCG#09001G>Komagane-city<JCC#0910>,陣馬形山,長野県上伊那郡中川村<JCG#09001G>長野県駒ヶ根市<JCC#0910>
JA/NN-136,36.699,138.0399,8,1432,Sunabachiyama,Nagano-city<JCC#0901>,砂鉢山,長野県長野市<JCC#0901>
JA/NN-137,36.3986,138.0635,8,1440,Oosawayama,Higashichikuma-gun<JCG#09015K>Chiisagata-gun<JCG#09012A>,大沢山,長野県東筑摩郡筑北村<JCG#09015K>長野県小県郡青木村<JCG#09012A>
JA/NN-138,35.5017,137.7392,8,1398,Takatoyasan,Shimoina-gun<JCG#09008A>Iida-city<JCC#0905>,高鳥屋山,長野県下伊那郡阿智村<JCG#09008A>長野県飯田市<JCC#0905>
JA/NN-139,36.0345,137.9045,8,1393,Kamanosawa,Kamiina-gun<JCG#09001F>Shiojiri-city<JCC#0915>,釜ノ沢(三角点),長野県上伊那郡辰野町<JCG#09001F>長野県塩尻市<JCC#0915>
JA/NN-140,36.6562,138.0141,8,1391,P1391,Nagano-city<JCC#0901>,点1391,長野県長野市<JCC#0901>
JA/NN-141,36.8374,138.2743,8,1382,Madaraoyama,Kamiminochi-gun<JCG#09003D>Iiyama-city<JCC#0913>,斑尾山,長野県上水内郡信濃町<JCG#09003D>長野県飯山市<JCC#0913>
JA/NN-142,36.2474,138.6045,8,1375,Monomiyama,Saku-city<JCC#0918>Kanra-gun<JCG#16004B>,物見山,長野県佐久市<JCC#0918>群馬県甘楽郡下仁田町<JCG#16004B>
JA/NN-143,35.6134,137.5836,8,1373,Iseyama,Kiso-gun<JCG#09004J>,伊勢山,長野県木曽郡南木曽町<JCG#09004J>
JA/NN-144,36.7388,137.9057,8,1356,Iwatoya,Kitaazumi-gun<JCG#09005E>Kitaazumi-gun<JCG#09005F>,岩戸山,長野県北安曇郡小谷村<JCG#09005E>長野県北安曇郡白馬村<JCG#09005F>
JA/NN-145,36.7993,138.4038,8,1352,Koushasan/Takaifuji,Shimotakai-gun<JCG#09009C>Shimotakai-gun<JCG#09009A>Nakano-city<JCC#0911>,高社山(高井富士),長野県下高井郡山ノ内町<JCG#09009C>長野県下高井郡木島平村<JCG#09009A>長野県中野市<JCC#0911>
JA/NN-146,36.5929,137.8195,8,1337,P1337,Omachi-city<JCC#0912>,点1337,長野県大町市<JCC#0912>
JA/NN-147,36.4368,138.1216,8,1333,Oobayashiyama,Higashichikuma-gun<JCG#09015K>Chikuma-city<JCC#0919>Ueda-city<JCC#0903>,大林山,長野県東筑摩郡筑北村<JCG#09015K>長野県千曲市<JCC#0919>長野県上田市<JCC#0903>
JA/NN-148,36.9029,138.6106,8,1330,Takakurayama,Shimominochi-gun<JCG#09010B>,高倉山,長野県下水内郡栄村<JCG#09010B>
JA/NN-149,36.8704,137.9189,8,1325,Kutsukatayama,Kitaazumi-gun<JCG#09005E>,沓形山,長野県北安曇郡小谷村<JCG#09005E>
JA/NN-150,36.479,138.2306,8,1320,Hatogamine,Hanishina-gun<JCG#09014B>Ueda-city<JCC#0903>,鳩ヶ峯近傍,長野県埴科郡坂城町<JCG#09014B>長野県上田市<JCC#0903>
JA/NN-151,35.471,137.6803,8,1319,Yogarasuyama,Shimoina-gun<JCG#09008A>,夜烏山,長野県下伊那郡阿智村<JCG#09008A>
JA/NN-152,35.9418,137.7712,8,1318,Misawayama,Kiso-gun<JCG#09004E>,三沢山,長野県木曽郡木祖村<JCG#09004E>
JA/NN-153,36.2797,138.5974,8,1315,Happuuzan,Kitasaku-gun<JCG#09006B>Saku-city<JCC#0918>,八風山,長野県北佐久郡軽井沢町<JCG#09006B>長野県佐久市<JCC#0918>
JA/NN-154,36.3776,138.0397,8,1316,Oohorayama,Higashichikuma-gun<JCG#09015K>Matsumoto-city<JCC#0902>,大洞山,長野県東筑摩郡筑北村<JCG#09015K>長野県松本市<JCC#0902>
JA/NN-155,36.5994,138.3055,8,1294,Myoutokusan,Suzaka-city<JCC#0907>Nagano-city<JCC#0901>,妙徳山,長野県須坂市<JCC#0907>長野県長野市<JCC#0901>
JA/NN-156,36.0187,137.9926,8,1291,Tsurugamine,Kamiina-gun<JCG#09001F>Okaya-city<JCC#0904>,鶴ヶ峰,長野県上伊那郡辰野町<JCG#09001F>長野県岡谷市<JCC#0904>
JA/NN-157,36.9766,138.3823,8,1289,Nabekurayama,Iiyama-city<JCC#0913>Myoko-city<JCC#0827>,鍋倉山,長野県飯山市<JCC#0913>新潟県妙高市<JCC#0827>
JA/NN-158,36.501,138.2018,8,1269,Kyodaisan,Chikuma-city<JCC#0919>Hanishina-gun<JCG#09014B>Ueda-city<JCC#0903>,鏡台山,長野県千曲市<JCC#0919>長野県埴科郡坂城町<JCG#09014B>長野県上田市<JCC#0903>
JA/NN-159,36.3201,138.1874,8,1260,Tokkozan,Ueda-city<JCC#0903>,独鈷山,長野県上田市<JCC#0903>
JA/NN-160,35.3185,137.6092,8,1254,HirayaCC,Shimoina-gun<JCG#09008L>,平谷CC,長野県下伊那郡平谷村<JCG#09008L>
JA/NN-161,36.4688,138.1067,8,1252,Kamurikiyama/Obasuteyama,Chikuma-city<JCC#0919>Higashichikuma-gun<JCG#09015K>,冠着山(姨捨山),長野県千曲市<JCC#0919>長野県東筑摩郡筑北村<JCG#09015K>
JA/NN-162,36.3475,138.1295,8,1250,Ogamidake,Ueda-city<JCC#0903>Chiisagata-gun<JCG#09012A>,夫神岳,長野県上田市<JCC#0903>長野県小県郡青木村<JCG#09012A>
JA/NN-163,36.3223,138.1147,8,1232,Daimyoujindake,Ueda-city<JCC#0903>Chiisagata-gun<JCG#09012A>,大明神岳,長野県上田市<JCC#0903>長野県小県郡青木村<JCG#09012A>
JA/NN-164,36.5902,137.8661,8,1223,Gongenyama,Omachi-city<JCC#0912>,権現山,長野県大町市<JCC#0912>
JA/NN-165,36.3923,138.1163,8,1220,Komayumidake,Chiisagata-gun<JCG#09012A>,子檀嶺岳,長野県小県郡青木村<JCG#09012A>
JA/NN-166,36.0273,137.9613,8,1203,Maeyama,Kamiina-gun<JCG#09001F>,前山(三角点),長野県上伊那郡辰野町<JCG#09001F>
JA/NN-167,37.0251,138.5012,8,1200,P1200,Iiyama-city<JCC#0913>Joetsu-city<JCC#0822>,点1200,長野県飯山市<JCC#0913>新潟県上越市<JCC#0822>
JA/NN-168,35.2257,137.7879,8,1200,Tougeyama,Shimoina-gun<JCG#09008P>,峠山,長野県下伊那郡天龍村<JCG#09008P>
JA/NN-169,35.8368,138.0824,8,1192,Gatsuzousan,Ina-city<JCC#0909>,月蔵山,長野県伊那市<JCC#0909>
JA/NN-170,35.2854,137.6076,8,1180,P1180,Shimoina-gun<JCG#09008K>,点1180,長野県下伊那郡根羽村<JCG#09008K>
JA/NN-171,36.5066,137.8869,8,1167,Takagariyama,Omachi-city<JCC#0912>,鷹狩山,長野県大町市<JCC#0912>
JA/NN-172,36.5413,137.9228,8,1160,Choujyayama,Nagano-city<JCC#0901>,長者山,長野県長野市<JCC#0901>
JA/NN-173,36.8653,138.2577,8,1135,Hakamadake,Kamiminochi-gun<JCG#09003D>Myoko-city<JCC#0827>,袴岳,長野県上水内郡信濃町<JCG#09003D>新潟県妙高市<JCC#0827>
JA/NN-174,35.2716,137.7721,8,1132,Arano,Shimoina-gun<JCG#09008N>Shimoina-gun<JCG#09008P>,新野(三角点),長野県下伊那郡阿南町<JCG#09008N>長野県下伊那郡天龍村<JCG#09008P>
JA/NN-175,36.4854,138.073,8,1131,Mitsuminesan,Higashichikuma-gun<JCG#09015C>Chikuma-city<JCC#0919>,三峯山,長野県東筑摩郡麻績村<JCG#09015C>長野県千曲市<JCC#0919>
JA/NN-176,35.6548,137.6351,8,1100,Shiroyama,Kiso-gun<JCG#09004C>,城山,長野県木曽郡大桑村<JCG#09004C>
JA/NN-177,36.4863,138.1758,6,1094,Gorigamine,Chikuma-city<JCC#0919>Hanishina-gun<JCG#09014B>,五里ヶ峯,長野県千曲市<JCC#0919>長野県埴科郡坂城町<JCG#09014B>
JA/NN-178,36.4427,137.8182,6,1093,Ooborayama,Kitaazumi-gun<JCG#09005B>Omachi-city<JCC#0912>,大洞山,長野県北安曇郡松川村<JCG#09005B>長野県大町市<JCC#0912>
JA/NN-179,36.637,137.9222,6,1059,P1059,Omachi-city<JCC#0912>Kamiminochi-gun<JCG#09003A>,点1059,長野県大町市<JCC#0912>長野県上水内郡小川村<JCG#09003A>
JA/NN-180,35.5516,137.5716,6,1037,Takatokiyama,Kiso-gun<JCG#09004J>Nakatsugawa-city<JCC#1906>,高土幾山,長野県木曽郡南木曽町<JCG#09004J>岐阜県中津川市<JCC#1906>
JA/NN-181,36.3201,138.2227,6,1034,Fujidakesan,Ueda-city<JCC#0903>,富士嶽山,長野県上田市<JCC#0903>
JA/NN-182,36.8819,138.2959,6,1022,Kenashiyama,Iiyama-city<JCC#0913>Myoko-city<JCC#0827>,毛無山,長野県飯山市<JCC#0913>新潟県妙高市<JCC#0827>
JA/NN-183,36.5181,137.9334,6,1006,Near_Ooubayama,Nagano-city<JCC#0901>Omachi-city<JCC#0912>,大姥山近傍,長野県長野市<JCC#0901>長野県大町市<JCC#0912>
JA/NN-184,36.649,138.1348,6,992,Fujinotouzan,Nagano-city<JCC#0901>,富士ノ塔山,長野県長野市<JCC#0901>
JA/NN-185,36.433,137.9511,6,990,Kyougakura,Higashichikuma-gun<JCG#09015I>,京ヶ倉,長野県東筑摩郡生坂村<JCG#09015I>
JA/NN-186,36.914,137.8935,6,976,Tokurayama,Itoigawa-city<JCC#0816>,戸倉山,新潟県糸魚川市<JCC#0816>
JA/NN-187,36.4932,137.9266,6,952,Shiroyama,Omachi-city<JCC#0912>,城山,長野県大町市<JCC#0912>
JA/NN-188,36.4072,138.1822,6,933,Shiroyama,Ueda-city<JCC#0903>,城山,長野県上田市<JCC#0903>
JA/NN-189,36.3921,138.1506,6,932,Iidunayama,Chiisagata-gun<JCG#09012A>Ueda-city<JCC#0903>,飯綱山,長野県小県郡青木村<JCG#09012A>長野県上田市<JCC#0903>
JA/NN-190,36.5403,138.0632,6,926,P926,Chikuma-city<JCC#0919>Nagano-city<JCC#0901>,点926(大田原(三角点)近傍),長野県千曲市<JCC#0919>長野県長野市<JCC#0901>
JA/NN-191,36.3633,138.2613,4,800,P800,Ueda-city<JCC#0903>,点800,長野県上田市<JCC#0903>
JA/NN-192,35.4513,137.7778,4,798,Suisyouzan,Iida-city<JCC#0905>,水晶山,長野県飯田市<JCC#0905>
JA/NN-193,35.3231,137.9429,4,718,Moriyama,Iida-city<JCC#0905>,森山,長野県飯田市<JCC#0905>
JA/NN-194,35.7667,137.794,10,2846,Sannosawadake,Kiso-gun<JCG#09004A>Kiso-gun<JCG#09004C>,三ノ沢岳(三沢岳),長野県木曽郡上松町<JCG#09004A>長野県木曽郡大桑村<JCG#09004C>
JA/NN-195,35.9724,138.3588,10,2805,Amidadake,Chino-city<JCC#0914>Suwa-gun<JCG#09011B>,阿弥陀岳,長野県茅野市<JCC#0914>長野県諏訪郡原村<JCG#09011B>
JA/NN-196,36.5357,137.7105,10,2798,Rengedake,Omachi-city<JCC#0912>Nakaniikawa-gun<JCG#28004C>,蓮華岳,長野県大町市<JCC#0912>富山県中新川郡立山町<JCG#28004C>
JA/NN-197,36.4612,137.7167,10,2632,Karasawadake,Omachi-city<JCC#0912>,唐沢岳,長野県大町市<JCC#0912>
JA/NN-198,36.577,137.7134,10,2630,Iwakoyasawadake,Omachi-city<JCC#0912>Nakaniikawa-gun<JCG#28004C>,岩小屋沢岳,長野県大町市<JCC#0912>富山県中新川郡立山町<JCG#28004C>
JA/NN-199,36.4955,137.6675,10,2601,Fudoudake,Omachi-city<JCC#0912>Toyama-city<JCC#2801>,不動岳,長野県大町市<JCC#0912>富山県富山市<JCC#2801>
JA/NN-200,36.5107,137.6945,10,2509,Nanakuradake,Omachi-city<JCC#0912>Toyama-city<JCC#2801>,七倉岳,長野県大町市<JCC#0912>富山県富山市<JCC#2801>
JA/NN-201,36.3253,137.7046,10,2492,Nakayama,Matsumoto-city<JCC#0902>,中山,長野県松本市<JCC#0902>
JA/NN-202,36.2269,137.5871,10,2455,Yakedake,Matsumoto-city<JCC#0902>Takayama-city<JCC#1903>,焼岳,長野県松本市<JCC#0902>岐阜県高山市<JCC#1903>
JA/NN-203,36.2227,137.6705,10,2428,Junction_peak,Matsumoto-city<JCC#0902>,ジャンクションピーク,長野県松本市<JCC#0902>
JA/NN-204,36.4052,138.4886,10,2404,Kurofuyama,Komoro-city<JCC#0908>Agatsuma-gun<JCG#16001F>,黒斑山,長野県小諸市<JCC#0908>群馬県吾妻郡嬬恋村<JCG#16001F>
JA/NN-205,36.3929,138.5034,10,2281,Kengamine,Kitasaku-gun<JCG#09006F>,剣ヶ峰,長野県北佐久郡御代田町<JCG#09006F>
JA/NN-206,36.1906,137.5951,10,2220,Abousan,Matsumoto-city<JCC#0902>Takayama-city<JCC#1903>,安房山,長野県松本市<JCC#0902>岐阜県高山市<JCC#1903>
JA/NN-207,36.5491,138.3953,10,2207,Nekodake,Suzaka-city<JCC#0907>Ueda-city<JCC#0903>,根子岳,長野県須坂市<JCC#0907>長野県上田市<JCC#0903>
JA/NN-208,35.5633,138.0934,10,2082,JA/NN-208,Shimoina-gun<JCG#09008C>,点2082,長野県下伊那郡大鹿村<JCG#09008C>
JA/NN-209,36.4334,138.3871,10,2066,Eboshidake,Ueda-city<JCC#0903>Toumi-city<JCC#0920>,烏帽子岳,長野県上田市<JCC#0903>長野県東御市<JCC#0920>
JA/NN-210,36.0731,137.7821,10,2022,P2022,Higashichikuma-gun<JCG#09015B>Kiso-gun<JCG#09004E>,点2022,長野県東筑摩郡朝日村<JCG#09015B>長野県木曽郡木祖村<JCG#09004E>
JA/NN-211,35.9956,137.6978,10,1984,Fuji,Kiso-gun<JCG#09004L>Kiso-gun<JCG#09004E>,富士(三角点),長野県木曽郡木曽町<JCG#09004L>長野県木曽郡木祖村<JCG#09004E>
JA/NN-212,35.6161,138.1359,10,1981,Ooidosawa,Ina-city<JCC#0909>,大井戸沢(三角点),長野県伊那市<JCC#0909>
JA/NN-213,36.0206,137.6517,10,1937,Motoyazu,Matsumoto-city<JCC#0902>Kiso-gun<JCG#09004L>,本谷頭(三角点),長野県松本市<JCC#0902>長野県木曽郡木曽町<JCG#09004L>
JA/NN-214,36.7704,138.0551,10,1904,Togakushiyama,Nagano-city<JCC#0901>,戸隠山,長野県長野市<JCC#0901>
JA/NN-215,35.8129,138.1291,10,1887,KareiKogen,Ina-city<JCC#0909>,鹿嶺高原,長野県伊那市<JCC#0909>
JA/NN-216,35.9938,138.5476,10,1851,Otokoyama,Minamisaku-gun<JCG#09017E>Minamisaku-gun<JCG#09017A>,男山,長野県南佐久郡南牧村<JCG#09017E>長野県南佐久郡川上村<JCG#09017A>
JA/NN-217,35.9385,138.5244,10,1734,Onnayama,Minamisaku-gun<JCG#09017A>,女山,長野県南佐久郡川上村<JCG#09017A>
JA/NN-218,35.772,137.4786,10,1704,Mayumizawa,Kiso-gun<JCG#09004B>,真弓沢(三角点),長野県木曽郡王滝村<JCG#09004B>
JA/NN-219,36.1514,138.2193,10,1659,Mushikurayama,Chiisagata-gun<JCG#09012H>,虫倉山,長野県小県郡長和町<JCG#09012H>
JA/NN-220,36.2871,138.04,10,1629,Toyamine,Matsumoto-city<JCC#0902>,戸谷峰,長野県松本市<JCC#0902>
JA/NN-222,36.7228,137.9894,10,1562,Ichiyasan,Nagano-city<JCC#0901>,一夜山,長野県長野市<JCC#0901>
JA/NN-223,36.8697,138.6136,8,1495,Nunoiwayama,Shimominochi-gun<JCG#09010B>,布岩山,長野県下水内郡栄村<JCG#09010B>
JA/NN-224,36.8783,137.9672,8,1485,Kanbadaira,Kitaazumi-gun<JCG#09005E>,勘馬平(三角点),長野県北安曇郡小谷村<JCG#09005E>
JA/NN-225,35.6324,138.0203,8,1440,Near_Minamimukai,Kamiina-gun<JCG#09001G>,南向（三角点近傍）,長野県上伊那郡中川村<JCG#09001G>
JA/NN-226,36.4917,137.7613,8,1350,Yabitsuyama,Omachi-city<JCC#0912>,矢櫃山近傍,長野県大町市<JCC#0912>
JA/NN-228,36.4509,138.2419,8,1327,Oominesan,Ueda-city<JCC#0903>Hanishina-gun<JCG#09014B>,大峯山,長野県上田市<JCC#0903>長野県埴科郡坂城町<JCG#09014B>
JA/NN-229,35.2758,137.6256,8,1322,Yodate,Shimoina-gun<JCG#09008K>Shimoina-gun<JCG#09008L>,代立(三角点),長野県下伊那郡根羽村<JCG#09008K>長野県下伊那郡平谷村<JCG#09008L>
JA/NN-230,36.1766,138.5932,8,1300,Kokarasawayama,Saku-city<JCC#0918>,小唐沢山,長野県佐久市<JCC#0918>
JA/NN-231,36.4405,138.2689,8,1300,Higashitarouyama,Ueda-city<JCC#0903>,東太郎山,長野県上田市<JCC#0903>
JA/NN-232,36.3538,138.6119,8,1256,Hanareyama,Kitasaku-gun<JCG#09006B>,離山,長野県北佐久郡軽井沢町<JCG#09006B>
JA/NN-233,36.0843,137.9422,8,1160,Hisanoi,Shiojiri-city<JCC#0915>,久ノ井(三角点),長野県塩尻市<JCC#0915>
JA/NN-234,36.3681,138.012,8,1139,Kokuzousan,Matsumoto-city<JCC#0902>Higashichikuma-gun<JCG#09015K>,虚空蔵山,長野県松本市<JCC#0902>長野県東筑摩郡筑北村<JCG#09015K>
JA/NN-235,35.5217,137.9585,8,1133,Motoyama,Shimoina-gun<JCG#09008Q>,本山,長野県下伊那郡豊丘村<JCG#09008Q>
JA/NN-236,35.7284,138.0159,8,1120,Nakasokura,Komagane-city<JCC#0910>,中曽倉(三角点),長野県駒ヶ根市<JCC#0910>
JA/NN-237,36.6701,137.9571,8,1119,P1119,Kamiminochi-gun<JCG#09003A>Nagano-city<JCC#0901>,点1119,長野県上水内郡小川村<JCG#09003A>長野県長野市<JCC#0901>
JA/NN-238,35.4229,137.723,6,1072,Hinoiriyama,Shimoina-gun<JCG#09008A>,日の入山,長野県下伊那郡阿智村<JCG#09008A>
JA/NN-239,36.7908,138.4219,6,1064,Iimoriyama,Shimotakai-gun<JCG#09009C>,飯盛山,長野県下高井郡山ノ内町<JCG#09009C>
JA/NN-240,36.5972,138.2749,6,997,Wakahotaroyama,Nagano-city<JCC#0901>,若穂太郎山,長野県長野市<JCC#0901>
JA/NN-241,36.8085,137.9183,6,938,Tateyama,Kitaazumi-gun<JCG#09005E>,立山,長野県北安曇郡小谷村<JCG#09005E>
JA/NN-242,36.3358,137.9407,6,933,Nagamineyama,Azumino-city<JCC#0921>,長峰山,長野県安曇野市<JCC#0921>
JA/NN-243,36.3392,138.1625,6,930,Megamidake,Ueda-city<JCC#0903>,女神岳,長野県上田市<JCC#0903>
JA/NN-244,36.5398,137.9504,6,890,Iwashita,Nagano-city<JCC#0901>,岩下(三角点),長野県長野市<JCC#0901>
JA/NN-245,36.5775,138.0888,4,774,Kawanakajima_CC,Nagano-city<JCC#0901>,川中島CC,長野県長野市<JCC#0901>
JA/NN-246,36.5526,138.2241,4,660,Minakamiyama,Nagano-city<JCC#0901>,皆神山,長野県長野市<JCC#0901>
JA/CB-001,35.1149,139.9868,1,408,Atagoyama,Minamiboso-city<JCC#1234>,愛宕山,千葉県南房総市<JCC#1234>
JA/CB-002,35.2556,139.9719,1,379,Kanouzan/Shiratorimine,Kimitsu-city<JCC#1224>,鹿野山(白鳥峰),千葉県君津市<JCC#1224>
JA/CB-003,35.1623,140.1523,1,377,Myokensan,Kamogawa-city<JCC#1223>,清澄山（妙見山）,千葉県鴨川市<JCC#1223>
JA/CB-004,35.0887,139.9477,1,364,Gotenyama,Minamiboso-city<JCC#1234>,御殿山,千葉県南房総市<JCC#1234>
JA/CB-005,35.0988,139.8815,1,350,Tomisan,Minamiboso-city<JCC#1234>,富山,千葉県南房総市<JCC#1234>
JA/CB-006,35.1604,139.8409,1,330,Nokogiriyama,Futtu-city<JCC#1226>Awa-gun<JCG#12001G>,鋸山,千葉県富津市<JCC#1226>千葉県安房郡鋸南町<JCG#12001G>
JA/CB-007,35.2629,140.0246,1,313,Ueno,Kimitsu-city<JCC#1224>,上野(三角点),千葉県君津市<JCC#1224>
JA/CB-008,35.1575,140.0202,1,365,Awatakayama,Kimitsu-city<JCC#1224>,安房高山,千葉県君津市<JCC#1224>
JA/CB-009,35.1073,139.914,1,336,Iyogatake,Minamiboso-city<JCC#1234>,伊予ヶ岳,千葉県南房総市<JCC#1234>
JA/CB-010,35.3139,140.1136,1,271,Gosyotukayama,Ichihara-city<JCC#1219>Kimitsu-city<JCC#1224>,御所塚山,千葉県市原市<JCC#1219>千葉県君津市<JCC#1224>
JA/CB-011,35.1123,139.8647,1,259,Tsubenoyama,Awa-gun<JCG#12001G>,津辺野山,千葉県安房郡鋸南町<JCG#12001G>
JA/CB-012,34.9375,139.9404,1,216,Takatsukayama,Minamiboso-city<JCC#1234>,高塚山,千葉県南房総市<JCC#1234>
JA/CB-013,35.1094,140.0184,1,340,Mineokasengen,Kamogawa-city<JCC#1223>,嶺岡浅間,千葉県鴨川市<JCC#1223>
JA/GM-001,36.5418,138.413,10,2354,Azumayasan,Suzaka-city<JCC#0907>Agatsuma-gun<JCG#16001F>,四阿山,長野県須坂市<JCC#0907>群馬県吾妻郡嬬恋村<JCG#16001F>
JA/GM-002,36.9034,139.1732,10,2228,Shibutsusan,Tone-gun<JCG#16010A>Tone-gun<JCG#16010I>,至仏山,群馬県利根郡片品村<JCG#16010A>群馬県利根郡みなかみ町<JCG#16010I>
JA/GM-003,36.8527,139.3486,10,2222,Tsubakurosuyama,Tone-gun<JCG#16010A>Nikko-city<JCC#1506>,燕巣山,群馬県利根郡片品村<JCG#16010A>栃木県日光市<JCC#1506>
JA/GM-004,36.6288,138.4586,10,2160,Omeshidake,Agatsuma-gun<JCG#16001F>Kamitakai-gun<JCG#09002B>,御飯岳,群馬県吾妻郡嬬恋村<JCG#16001F>長野県上高井郡高山村<JCG#09002B>
JA/GM-005,36.8052,139.1326,10,2158,Hotakayama,Tone-gun<JCG#16010I>Tone-gun<JCG#16010B>,武尊山,群馬県利根郡みなかみ町<JCG#16010I>群馬県利根郡川場村<JCG#16010B>
JA/GM-006,36.8441,139.3299,10,2156,Shiroudake,Tone-gun<JCG#16010A>,四郎岳,群馬県利根郡片品村<JCG#16010A>
JA/GM-007,36.7381,138.6935,10,2140,Shirasunayama,Agatsuma-gun<JCG#16001H>Shimominochi-gun<JCG#09010B>,白砂山,群馬県吾妻郡中之条町<JCG#16001H>長野県下水内郡栄村<JCG#09010B>
JA/GM-008,36.7604,138.7225,10,2120,Uenokurayama,Agatsuma-gun<JCG#16001H>Minamiuonuma-gun<JCG#08015D>,上ノ倉山,群馬県吾妻郡中之条町<JCG#16001H>新潟県南魚沼郡湯沢町<JCG#08015D>
JA/GM-009,36.7038,138.5435,10,2109,Akaishiyama,Agatsuma-gun<JCG#16001H>Shimotakai-gun<JCG#09009C>,赤石山,群馬県吾妻郡中之条町<JCG#16001H>長野県下高井郡山ノ内町<JCG#09009C>
JA/GM-010,36.8175,138.8395,10,2026,Sennokurayama,Tone-gun<JCG#16010I>Minamiuonuma-gun<JCG#08015D>,仙ノ倉山,群馬県利根郡みなかみ町<JCG#16010I>新潟県南魚沼郡湯沢町<JCG#08015D>
JA/GM-011,36.8864,139.2717,10,2024,Nikurayama,Tone-gun<JCG#16010A>,荷鞍山,群馬県利根郡片品村<JCG#16010A>
JA/GM-012,36.9569,139.2106,10,2004,Keiduruyama,Tone-gun<JCG#16010A>Uonuma-city<JCC#0825>,景鶴山,群馬県利根郡片品村<JCG#16010A>新潟県魚沼市<JCC#0825>
JA/GM-013,36.6011,138.4407,10,2000,Donabeyama,Agatsuma-gun<JCG#16001F>Suzaka-city<JCC#0907>,土鍋山,群馬県吾妻郡嬬恋村<JCG#16001F>長野県須坂市<JCC#0907>
JA/GM-014,36.4529,138.4083,10,1981,Kakumayama,Agatsuma-gun<JCG#16001F>,角間山,群馬県吾妻郡嬬恋村<JCG#16001F>
JA/GM-015,36.719,138.6208,10,1970,Mitsukabeyama,Agatsuma-gun<JCG#16001H>Shimotakai-gun<JCG#09009C>,三壁山,群馬県吾妻郡中之条町<JCG#16001H>長野県下高井郡山ノ内町<JCG#09009C>
JA/GM-016,36.9786,138.9643,10,1967,Makihatayama,Tone-gun<JCG#16010I>Minamiuonuma-city<JCC#0826>,巻機山,群馬県利根郡みなかみ町<JCG#16010I>新潟県南魚沼市<JCC#0826>
JA/GM-017,36.8242,138.8792,10,1954,Mantarousan,Tone-gun<JCG#16010I>Minamiuonuma-gun<JCG#08015D>,万太郎山,群馬県利根郡みなかみ町<JCG#16010I>新潟県南魚沼郡湯沢町<JCG#08015D>
JA/GM-018,36.9873,139.0472,10,1946,Ozawadake,Tone-gun<JCG#16010I>Minamiuonuma-city<JCC#0826>,小沢岳,群馬県利根郡みなかみ町<JCG#16010I>新潟県南魚沼市<JCC#0826>
JA/GM-019,36.8807,138.9726,10,1945,Asahidake,Tone-gun<JCG#16010I>,朝日岳,群馬県利根郡みなかみ町<JCG#16010I>
JA/GM-020,36.4424,138.427,10,1931,Sajikiyama,Agatsuma-gun<JCG#16001F>,棧敷山,群馬県吾妻郡嬬恋村<JCG#16001F>
JA/GM-021,36.9357,138.9667,10,1900,Karasawayama,Tone-gun<JCG#16010I>Minamiuonuma-city<JCC#0826>,柄沢山,群馬県利根郡みなかみ町<JCG#16010I>新潟県南魚沼市<JCC#0826>
JA/GM-022,36.8413,139.1982,10,1898,Nishiyama,Tone-gun<JCG#16010I>Tone-gun<JCG#16010A>,西山,群馬県利根郡みなかみ町<JCG#16010I>群馬県利根郡片品村<JCG#16010A>
JA/GM-023,36.5604,139.1933,10,1828,Akagisan/Kurobisan,Numata-city<JCC#1606>Kiryu-city<JCC#1603>Maebashi-city<JCC#1601>,赤城山(黒檜山),群馬県沼田市<JCC#1606>群馬県桐生市<JCC#1603>群馬県前橋市<JCC#1601>
JA/GM-024,36.4537,138.6525,10,1757,Asamakakushiyama,Agatsuma-gun<JCG#16001I>Agatsuma-gun<JCG#16001G>,浅間隠山,群馬県吾妻郡東吾妻町<JCG#16001I>群馬県吾妻郡長野原町<JCG#16001G>
JA/GM-025,36.7973,138.8894,10,1749,Oizumatasan,Tone-gun<JCG#16010I>,小出俣山,群馬県利根郡みなかみ町<JCG#16010I>
JA/GM-026,36.541,139.1773,10,1674,Akagisan/Jizoudake,Maebashi-city<JCC#1601>,赤城山(地蔵岳),群馬県前橋市<JCC#1601>
JA/GM-027,36.4108,138.6452,10,1655,Hanamagariyama,Takasaki-city<JCC#1602>Kitasaku-gun<JCG#09006B>,鼻曲山,群馬県高崎市<JCC#1602>長野県北佐久郡軽井沢町<JCG#09006B>
JA/GM-028,36.9614,139.0768,10,1594,Nishimae,Tone-gun<JCG#16010I>,西前(三角点),群馬県利根郡みなかみ町<JCG#16010I>
JA/GM-029,36.3961,138.652,10,1591,Tomebuyama,Annaka-city<JCC#1611>Kitasaku-gun<JCG#09006B>,留夫山,群馬県安中市<JCC#1611>長野県北佐久郡軽井沢町<JCG#09006B>
JA/GM-030,36.1437,138.8433,10,1522,Akagunayama,Tano-gun<JCG#16009G>Fujioka-city<JCC#1609>,赤久縄山,群馬県多野郡神流町<JCG#16009G>群馬県藤岡市<JCC#1609>
JA/GM-031,36.6384,138.6904,10,1512,Matsuiwayama,Agatsuma-gun<JCG#16001H>,松岩山,群馬県吾妻郡中之条町<JCG#16001H>
JA/GM-032,36.7827,139.044,8,1466,Amagahageyama,Tone-gun<JCG#16010I>Numata-city<JCC#1606>,尼ケ禿山,群馬県利根郡みなかみ町<JCG#16010I>群馬県沼田市<JCC#1606>
JA/GM-033,36.4774,138.8509,8,1449,Harunasan/Kamongatake,Agatsuma-gun<JCG#16001I>Takasaki-city<JCC#1602>,榛名山(掃部ヶ岳),群馬県吾妻郡東吾妻町<JCG#16001I>群馬県高崎市<JCC#1602>
JA/GM-034,36.6934,139.2661,8,1447,P1447,Numata-city<JCC#1606>,点1447,群馬県沼田市<JCC#1606>
JA/GM-035,36.204,138.6371,8,1423,Arafuneyama,Kanra-gun<JCG#16004B>Kanra-gun<JCG#16004C>Saku-city<JCC#0918>,荒船山,群馬県甘楽郡下仁田町<JCG#16004B>群馬県甘楽郡南牧村<JCG#16004C>長野県佐久市<JCC#0918>
JA/GM-036,36.4745,138.9008,8,1411,Soumayama,Takasaki-city<JCC#1602>Kitagumma-gun<JCG#16005E>Shibukawa-city<JCC#1608>,相馬山,群馬県高崎市<JCC#1602>群馬県北群馬郡榛東村<JCG#16005E>群馬県渋川市<JCC#1608>
JA/GM-037,36.4655,138.6819,8,1411,Ryugadake,Takasaki-city<JCC#1602>Agatsuma-gun<JCG#16001I>,竜ケ岳,群馬県高崎市<JCC#1602>群馬県吾妻郡東吾妻町<JCG#16001I>
JA/GM-039,36.4875,138.8748,8,1363,Eboshigatake,Agatsuma-gun<JCG#16001I>,烏帽子ヶ岳,群馬県吾妻郡東吾妻町<JCG#16001I>
JA/GM-040,36.7076,139.1706,8,1351,Tashiroyama,Tone-gun<JCG#16010B>,田代山,群馬県利根郡川場村<JCG#16010B>
JA/GM-041,36.4821,138.9054,8,1343,Futatsudake(Odake),Shibukawa-city<JCC#1608>,二ツ岳(雄岳),群馬県渋川市<JCC#1608>
JA/GM-042,36.5751,138.6815,8,1342,Takamayama,Agatsuma-gun<JCG#16001I>Agatsuma-gun<JCG#16001H>Agatsuma-gun<JCG#16001G>,高間山,群馬県吾妻郡東吾妻町<JCG#16001I>群馬県吾妻郡中之条町<JCG#16001H>群馬県吾妻郡長野原町<JCG#16001G>
JA/GM-043,36.7465,138.9273,8,1341,Adumayasan,Tone-gun<JCG#16010I>,吾妻耶山,群馬県利根郡みなかみ町<JCG#16010I>
JA/GM-044,36.7831,139.0208,8,1324,Mukouyama,Tone-gun<JCG#16010I>,向山(三角点),群馬県利根郡みなかみ町<JCG#16010I>
JA/GM-045,36.4617,138.8823,8,1315,Mitsumineyama,Takasaki-city<JCC#1602>,三ツ峰山,群馬県高崎市<JCC#1602>
JA/GM-046,36.592,138.9977,8,1296,Komochiyama,Numata-city<JCC#1606>Shibukawa-city<JCC#1608>,子持山,群馬県沼田市<JCC#1606>群馬県渋川市<JCC#1608>
JA/GM-047,36.1523,138.9183,8,1286,Mikaboyama/Nishimikaboyama,Tano-gun<JCG#16009G>Fujioka-city<JCC#1609>,御荷鉾山(西御荷鉾山),群馬県多野郡神流町<JCG#16009G>群馬県藤岡市<JCC#1609>
JA/GM-049,36.4576,138.8651,8,1271,Hatayagatake,Takasaki-city<JCC#1602>,幡矢ケ岳,群馬県高崎市<JCC#1602>
JA/GM-050,36.633,139.2112,8,1271,Mizunashiyama,Numata-city<JCC#1606>,水無山(三角点),群馬県沼田市<JCC#1606>
JA/GM-051,36.651,138.7776,8,1212,Takadayama,Agatsuma-gun<JCG#16001H>,高田山,群馬県吾妻郡中之条町<JCG#16001H>
JA/GM-053,36.5808,138.937,8,1208,Onokoyama,Shibukawa-city<JCC#1608>Agatsuma-gun<JCG#16001C>,小野子山,群馬県渋川市<JCC#1608>群馬県吾妻郡高山村<JCG#16001C>
JA/GM-054,36.2845,138.6327,8,1207,Nikkureyama,Kanra-gun<JCG#16004B>,日暮山,群馬県甘楽郡下仁田町<JCG#16004B>
JA/GM-055,36.3003,138.6585,8,1192,Atagoyama,Annaka-city<JCC#1611>Kanra-gun<JCG#16004B>,愛宕山,群馬県安中市<JCC#1611>群馬県甘楽郡下仁田町<JCG#16004B>
JA/GM-056,36.2901,138.6576,8,1183,Ooyama,Kanra-gun<JCG#16004B>Annaka-city<JCC#1611>,大山,群馬県甘楽郡下仁田町<JCG#16004B>群馬県安中市<JCC#1611>
JA/GM-057,36.5848,138.7612,8,1182,Kazumayama,Agatsuma-gun<JCG#16001H>,吾嬬山,群馬県吾妻郡中之条町<JCG#16001H>
JA/GM-058,36.304,138.6989,8,1162,Yakyusan,Annaka-city<JCC#1611>,谷急山,群馬県安中市<JCC#1611>
JA/GM-059,36.6583,138.9034,8,1158,Nikaiyama,Agatsuma-gun<JCG#16001C>Tone-gun<JCG#16010I>,二階山,群馬県吾妻郡高山村<JCG#16001C>群馬県利根郡みなかみ町<JCG#16010I>
JA/GM-060,36.708,138.8754,8,1143,Takahatayama,Tone-gun<JCG#16010I>,高畠山,群馬県利根郡みなかみ町<JCG#16010I>
JA/GM-061,36.817,138.9977,8,1123,P1123,Tone-gun<JCG#16010I>,点1123,群馬県利根郡みなかみ町<JCG#16010I>
JA/GM-062,36.7196,139.018,8,1123,Mitsuminesan,Numata-city<JCC#1606>Tone-gun<JCG#16010I>,三峰山(三角点),群馬県沼田市<JCC#1606>群馬県利根郡みなかみ町<JCG#16010I>
JA/GM-063,36.5238,139.4016,8,1107,Zanmayama,Kiryu-city<JCC#1603>Midori-city<JCC#1612>,残馬山,群馬県桐生市<JCC#1603>群馬県みどり市<JCC#1612>
JA/GM-064,36.2986,138.7488,8,1104,Myougisan/Soumadake,Tomioka-city<JCC#1610>Annaka-city<JCC#1611>,妙義山(相馬岳),群馬県富岡市<JCC#1610>群馬県安中市<JCC#1611>
JA/GM-065,36.1633,138.7621,6,1089,Ozawadake,Kanra-gun<JCG#16004B>Kanra-gun<JCG#16004C>,小沢岳,群馬県甘楽郡下仁田町<JCG#16004B>群馬県甘楽郡南牧村<JCG#16004C>
JA/GM-066,36.2568,138.7311,6,878,Midouyama,Kanra-gun<JCG#16004B>,御堂山,群馬県甘楽郡下仁田町<JCG#16004B>
JA/GM-067,36.6339,138.8512,6,853,Arikawadake,Agatsuma-gun<JCG#16001H>,蟻川岳,群馬県吾妻郡中之条町<JCG#16001H>
JA/GM-068,36.245,138.7723,4,836,Oogetayama,Tomioka-city<JCC#1610>Kanra-gun<JCG#16004B>,大桁山,群馬県富岡市<JCC#1610>群馬県甘楽郡下仁田町<JCG#16004B>
JA/GM-069,36.6229,138.5317,10,2171,Honshiranesan,Agatsuma-gun<JCG#16001F>Agatsuma-gun<JCG#16001B>,本白根山,群馬県吾妻郡嬬恋村<JCG#16001F>群馬県吾妻郡草津町<JCG#16001B>
JA/GM-070,36.913,139.3492,10,2042,Hakamakoshiyama,Tone-gun<JCG#16010A>Minamiaizu-gun<JCG#07016C>,袴腰山,群馬県利根郡片品村<JCG#16010A>福島県南会津郡檜枝岐村<JCG#07016C>
JA/GM-071,36.9605,139.1454,10,1958,Akakuradake,Tone-gun<JCG#16010I>,赤倉岳,群馬県利根郡みなかみ町<JCG#16010I>
JA/GM-072,36.9146,139.278,10,1917,Sarafushiyama,Tone-gun<JCG#16010A>,皿伏山,群馬県利根郡片品村<JCG#16010A>
JA/GM-073,36.867,138.9196,10,1759,Bunoudake,Minamiuonuma-gun<JCG#08015D>Tone-gun<JCG#16010I>,武能岳,新潟県南魚沼郡湯沢町<JCG#08015D>群馬県利根郡みなかみ町<JCG#16010I>
JA/GM-074,36.455,138.4486,10,1746,Murakamiyama,Agatsuma-gun<JCG#16001F>,村上山,群馬県吾妻郡嬬恋村<JCG#16001F>
JA/GM-075,36.5259,139.1655,10,1572,Arayama,Maebashi-city<JCC#1601>,荒山,群馬県前橋市<JCC#1601>
JA/GM-076,36.7376,139.318,10,1558,Nikurazawa,Numata-city<JCC#1606>Agatsuma-gun<JCG#16001G>,仁倶羅沢(三角点),群馬県沼田市<JCC#1606>群馬県吾妻郡長野原町<JCG#16001G>
JA/GM-077,36.5152,138.6446,8,1474,Kanpou,Agatsuma-gun<JCG#16001I>Agatsuma-gun<JCG#16001G>,菅峰,群馬県吾妻郡東吾妻町<JCG#16001I>群馬県吾妻郡長野原町<JCG#16001G>
JA/GM-078,36.4157,138.6814,8,1429,Kennomine,Takasaki-city<JCC#1602>,剣の峰,群馬県高崎市<JCC#1602>
JA/GM-079,36.4218,138.6882,8,1393,Tsunoochiyama,Takasaki-city<JCC#1602>,角落山,群馬県高崎市<JCC#1602>
JA/GM-080,36.4769,138.8783,8,1390,Harunafuji,Takasaki-city<JCC#1602>,榛名富士,群馬県高崎市<JCC#1602>
JA/GM-081,36.1695,138.8252,8,1370,Inafukumiyama,Kanra-gun<JCG#16004B>,稲含山,群馬県甘楽郡下仁田町<JCG#16004B>
JA/GM-082,36.4869,138.8639,8,1350,Bingushiyama,Agatsuma-gun<JCG#16001I>,鬢櫛山,群馬県吾妻郡東吾妻町<JCG#16001I>
JA/GM-083,36.666,138.8155,8,1293,P1293,Agatsuma-gun<JCG#16001H>,点1293,群馬県吾妻郡中之条町<JCG#16001H>
JA/GM-084,36.1492,138.9415,8,1246,Higashimikaboyama,Tano-gun<JCG#16009G>Fujioka-city<JCC#1609>,東御荷鉾山,群馬県多野郡神流町<JCG#16009G>群馬県藤岡市<JCC#1609>
JA/GM-085,36.587,138.923,8,1201,Jyunigatake,Shibukawa-city<JCC#1608>Agatsuma-gun<JCG#16001C>,十二ヶ岳,群馬県渋川市<JCC#1608>群馬県吾妻郡高山村<JCG#16001C>
JA/GM-086,36.3342,138.6504,8,1184,Yagasakiyama,Annaka-city<JCC#1611>Kitasaku-gun<JCG#09006B>,矢ケ崎山,群馬県安中市<JCC#1611>長野県北佐久郡軽井沢町<JCG#09006B>
JA/GM-087,36.0948,138.7834,8,1130,Takasoriyama,Tano-gun<JCG#16009F>,高反山,群馬県多野郡上野村<JCG#16009F>
JA/GM-088,36.3136,138.7149,8,1117,Eboshiiwa,Annaka-city<JCC#1611>,烏帽子岩,群馬県安中市<JCC#1611>
JA/GM-089,36.1289,138.8593,8,1102,Shiraishiyama,Tano-gun<JCG#16009G>,白石山,群馬県多野郡神流町<JCG#16009G>
JA/GM-090,36.2883,138.7383,6,1094,Kondouzan,Kanra-gun<JCG#16004B>Annaka-city<JCC#1611>,金洞山,群馬県甘楽郡下仁田町<JCG#16004B>群馬県安中市<JCC#1611>
JA/GM-091,36.5444,138.73,6,1080,P1080,Agatsuma-gun<JCG#16001I>,点1080,群馬県吾妻郡東吾妻町<JCG#16001I>
JA/GM-092,36.1464,138.6191,6,1032,P1032,Kanra-gun<JCG#16004C>,点1032,群馬県甘楽郡南牧村<JCG#16004C>
JA/GM-093,36.1437,138.9801,6,1012,Amefuriyama,Fujioka-city<JCC#1609>,雨降山,群馬県藤岡市<JCC#1609>
JA/GM-094,36.2064,138.7246,6,1010,Kanatake,Kanra-gun<JCG#16004C>Kanra-gun<JCG#16004B>,鹿岳,群馬県甘楽郡南牧村<JCG#16004C>群馬県甘楽郡下仁田町<JCG#16004B>
JA/GM-095,36.6477,139.1937,6,994,Takashiba,Numata-city<JCC#1606>,高芝(三角点),群馬県沼田市<JCC#1606>
JA/GM-096,36.3388,138.6969,6,991,Sankyusan,Annaka-city<JCC#1611>,山急山,群馬県安中市<JCC#1611>
JA/GM-097,36.7658,138.946,6,956,Sansekisonyama,Tone-gun<JCG#16010I>,山石尊山,群馬県利根郡みなかみ町<JCG#16010I>
JA/GM-098,36.3232,138.6778,6,952,Inamurayama,Annaka-city<JCC#1611>,稲村山,群馬県安中市<JCC#1611>
JA/GM-099,36.1995,138.7375,6,899,Yotsumatayama,Kanra-gun<JCG#16004C>Kanra-gun<JCG#16004B>,四ツ又山,群馬県甘楽郡南牧村<JCG#16004C>群馬県甘楽郡下仁田町<JCG#16004B>
JA/GM-100,36.1731,138.7065,6,898,Fujisengenyama,Kanra-gun<JCG#16004C>,富士浅間山,群馬県甘楽郡南牧村<JCG#16004C>
JA/GM-101,36.6139,138.831,4,789,Takeyama,Agatsuma-gun<JCG#16001H>,嵩山,群馬県吾妻郡中之条町<JCG#16001H>
JA/GM-102,36.1804,138.7793,4,788,Kongounokaya,Kanra-gun<JCG#16004B>,金剛萱,群馬県甘楽郡下仁田町<JCG#16004B>
JA/GM-103,36.6821,139.0553,4,771,Togamiyama,Numata-city<JCC#1606>,戸神山,群馬県沼田市<JCC#1606>
JA/GM-104,36.3783,139.3263,1,294,Chausuyama,Kiryu-city<JCC#1603>,茶臼山,群馬県桐生市<JCC#1603>
JA/GM-105,36.3176,139.3777,1,239,Kanayama,Ota-city<JCC#1605>,金山,群馬県太田市<JCC#1605>
JA/GM-106,36.759013,139.062334,8,1322,Kashouzan,Numata-city<JCC#1606>,迦葉山,群馬県沼田市<JCC#1606>
JA/GM-107,36.522768,138.671794,8,1237,Takajyokki,Agatsuma-gun<JCG#16001I>Agatsuma-gun<JCG#16001G>,高ジョッキ,群馬県吾妻郡東吾妻町<JCG#16001I>群馬県吾妻郡長野原町<JCG#16001G>
JA/IB-001,36.9302,140.2728,6,1022,Yamizosan,Kuji-gun<JCG#14004D>Higashishirakawa-gun<JCG#07014C>,八溝山,茨城県久慈郡大子町<JCG#14004D>福島県東白川郡棚倉町<JCG#07014C>
JA/IB-002,36.8741,140.6031,6,882,Eizoumuro,Kitaibaraki-city<JCC#1415>,栄蔵室,茨城県北茨城市<JCC#1415>
JA/IB-003,36.2254,140.1068,6,878,Tsukubasan,Tsukuba-city<JCC#1420>,筑波山,茨城県つくば市<JCC#1420>
JA/IB-004,36.2988,140.1435,4,709,Kabasan,Ishioka-city<JCC#1405>Sakuragawa-city<JCC#1431>,加波山,茨城県石岡市<JCC#1405>茨城県桜川市<JCC#1431>
JA/IB-005,36.7242,140.4197,4,654,Nantaisan,Kuji-gun<JCG#14004D>Hitachiota-city<JCC#1412>,男体山,茨城県久慈郡大子町<JCG#14004D>茨城県常陸太田市<JCC#1412>
JA/IB-006,36.2797,140.1477,2,628,Ashiosan,Ishioka-city<JCC#1405>Sakuragawa-city<JCC#1431>,足尾山,茨城県石岡市<JCC#1405>茨城県桜川市<JCC#1431>
JA/IB-007,36.621,140.5878,2,623,Takasuzuyama,Hitachiota-city<JCC#1412>Hitachi-city<JCC#1402>,高鈴山,茨城県常陸太田市<JCC#1412>茨城県日立市<JCC#1402>
JA/IB-008,36.3046,140.2223,2,553,Nandaisan,Kasama-city<JCC#1416>Ishioka-city<JCC#1405>,難台山,茨城県笠間市<JCC#1416>茨城県石岡市<JCC#1405>
JA/IB-009,36.7484,140.4698,2,552,Nabeashiyama,Hitachiota-city<JCC#1412>Kuji-gun<JCG#14004D>,鍋足山,茨城県常陸太田市<JCC#1412>茨城県久慈郡大子町<JCG#14004D>
JA/IB-010,36.4003,140.1654,2,520,Takamine,Sakuragawa-city<JCC#1431>Haga-gun<JCG#15008E>,高峯,茨城県桜川市<JCC#1431>栃木県芳賀郡茂木町<JCG#15008E>
JA/IB-011,36.3219,140.2011,2,518,Wagakunisan,Ishioka-city<JCC#1405>Kasama-city<JCC#1416>,吾国山,茨城県石岡市<JCC#1405>茨城県笠間市<JCC#1416>
JA/IB-012,36.7164,140.3141,2,512,Kogurayama,Kuji-gun<JCG#14004D>Hitachiomiya-city<JCC#1425>,小倉山,茨城県久慈郡大子町<JCG#14004D>茨城県常陸大宮市<JCC#1425>
JA/IB-013,36.7275,140.4059,1,496,Choufukuzan,Kuji-gun<JCG#14004D>,長福山,茨城県久慈郡大子町<JCG#14004D>
JA/IB-014,36.6803,140.499,1,490,Higashikanasayama,Hitachiota-city<JCC#1412>,東金砂山,茨城県常陸太田市<JCC#1412>
JA/IB-015,36.457,140.2075,1,431,Keisokusan,Higashiibaraki-gun<JCG#14012J>Haga-gun<JCG#15008E>,けい足山,茨城県東茨城郡城里町<JCG#14012J>栃木県芳賀郡茂木町<JCG#15008E>
JA/IB-016,36.4269,140.227,1,392,Kunimiyama,Kasama-city<JCC#1416>,国見山,茨城県笠間市<JCC#1416>
JA/IB-017,36.3892,140.104,1,361,Tomiyasan,Sakuragawa-city<JCC#1431>,富谷山,茨城県桜川市<JCC#1431>
JA/IB-018,36.368,140.1803,1,300,P300,Kasama-city<JCC#1416>Sakuragawa-city<JCC#1431>,点300,茨城県笠間市<JCC#1416>茨城県桜川市<JCC#1431>
JA/IB-019,36.6348,140.6088,2,599,Kaminesan,Hitachi-city<JCC#1402>,神峰山,茨城県日立市<JCC#1402>
JA/IB-020,36.7488,140.3026,2,511,Minamiyama,Kuji-gun<JCG#14004D>,南山,茨城県久慈郡大子町<JCG#14004D>
JA/IB-021,36.7059,140.3468,1,468,Shimodoudaira,Kuji-gun<JCG#14004D>Hitachiomiya-city<JCC#1425>,下堂平(三角点),茨城県久慈郡大子町<JCG#14004D>茨城県常陸大宮市<JCC#1425>
JA/IB-022,36.1675,140.1301,1,461,Houkyosan(Odayama),Tsuchiura-city<JCC#1403>Tsukuba-city<JCC#1420>,宝篋山(小田山),茨城県土浦市<JCC#1403>茨城県つくば市<JCC#1420>
JA/IB-023,36.3241,140.2476,1,410,Kagadayama,Kasama-city<JCC#1416>,加賀田山,茨城県笠間市<JCC#1416>
JA/IB-024,36.5057,140.2854,1,356,Takatoriyama,Higashiibaraki-gun<JCG#14012J>,高取山,茨城県東茨城郡城里町<JCG#14012J>
JA/IB-025,36.38,140.0607,1,283,Daisyouzan,Sakuragawa-city<JCC#1431>Mooka-city<JCC#1509>,大政山,茨城県桜川市<JCC#1431>栃木県真岡市<JCC#1509>
JA/KN-001,35.4863,139.1389,10,1673,Hirugatake,Midori-ku<JCC#111001>Ashigarakami-gun<JCG#11002E>,蛭ケ岳,神奈川県相模原市緑区<JCC#111001>神奈川県足柄上郡山北町<JCG#11002E>
JA/KN-002,35.4789,139.1027,10,1602,Hinokiboramaru,Midori-ku<JCC#111001>Ashigarakami-gun<JCG#11002E>,檜洞丸,神奈川県相模原市緑区<JCC#111001>神奈川県足柄上郡山北町<JCG#11002E>
JA/KN-003,35.511,139.0686,10,1588,Oomuroyama,Midori-ku<JCC#111001>Minamitsuru-gun<JCG#17008F>,大室山,神奈川県相模原市緑区<JCC#111001>山梨県南都留郡道志村<JCG#17008F>
JA/KN-004,35.2334,139.0209,8,1438,Kamiyama,Ashigarashimo-gun<JCG#11003C>,神山,神奈川県足柄下郡箱根町<JCG#11003C>
JA/KN-005,35.4637,138.9785,8,1379,Komotsurushiyama,Ashigarakami-gun<JCG#11002E>Minamitsuru-gun<JCG#17008F>,菰釣山,神奈川県足柄上郡山北町<JCG#11002E>山梨県南都留郡道志村<JCG#17008F>
JA/KN-006,35.4408,139.2312,8,1252,Ooyama,Isehara-city<JCC#1115>,大山,神奈川県伊勢原市<JCC#1115>
JA/KN-007,35.2897,139.0049,8,1213,Kintokizan,Ashigarashimo-gun<JCG#11003C>Sunto-gun<JCG#18009C>Minamiashigara-city<JCC#1118>,金時山,神奈川県足柄下郡箱根町<JCG#11003C>静岡県駿東郡小山町<JCG#18009C>神奈川県南足柄市<JCC#1118>
JA/KN-009,35.2795,139.0525,8,1169,Myoujingatake,Ashigarashimo-gun<JCG#11003C>Minamiashigara-city<JCC#1118>,明神ヶ岳,神奈川県足柄下郡箱根町<JCG#11003C>神奈川県南足柄市<JCC#1118>
JA/KN-010,35.2159,138.9841,8,1102,Mikuniyama,Ashigarashimo-gun<JCG#11003C>Susono-city<JCC#1821>,三国山,神奈川県足柄下郡箱根町<JCG#11003C>静岡県裾野市<JCC#1821>
JA/KN-011,35.2147,139.0419,6,1099,Kamifutagoyama,Ashigarashimo-gun<JCG#11003C>,上二子山,神奈川県足柄下郡箱根町<JCG#11003C>
JA/KN-012,35.4306,139.0253,6,1019,Gongenyama,Ashigarakami-gun<JCG#11002E>,権現山,神奈川県足柄上郡山北町<JCG#11002E>
JA/KN-013,35.6723,139.1363,6,1019,Kayamaru,Midori-ku<JCC#111001>Nishitama-gun<JCG#10002D>,茅丸,神奈川県相模原市緑区<JCC#111001>東京都西多摩郡檜原村<JCG#10002D>
JA/KN-014,35.1831,139.0461,6,1012,Taikanzan,Ashigarashimo-gun<JCG#11003C>Ashigarashimo-gun<JCG#11003B>,大観山,神奈川県足柄下郡箱根町<JCG#11003C>神奈川県足柄下郡湯河原町<JCG#11003B>
JA/KN-015,35.3997,139.0031,6,928,Furouzan,Ashigarakami-gun<JCG#11002E>,不老山,神奈川県足柄上郡山北町<JCG#11002E>
JA/KN-016,35.3286,139.0354,6,870,Yaguradake,Minamiashigara-city<JCC#1118>,矢倉岳,神奈川県南足柄市<JCC#1118>
JA/KN-017,35.5206,139.2581,4,747,Bukkasan,Aiko-gun<JCG#11001B>Aiko-gun<JCG#11001A>,仏果山,神奈川県愛甲郡清川村<JCG#11001B>神奈川県愛甲郡愛川町<JCG#11001A>
JA/KN-018,35.5852,139.1906,4,702,Sekirouzan,Midori-ku<JCC#111001>,石老山,神奈川県相模原市緑区<JCC#111001>
JA/KN-019,35.5616,139.2254,2,583,Sendoujiyama,Midori-ku<JCC#111001>,仙洞寺山,神奈川県相模原市緑区<JCC#111001>
JA/KN-020,35.5457,139.2357,2,569,Gongendaira/Higashiyama,Midori-ku<JCC#111001>,権現平(東山),神奈川県相模原市緑区<JCC#111001>
JA/KN-021,35.5566,139.2741,1,429,Amagoiyama,Midori-ku<JCC#111001>,雨乞岳(三角点),神奈川県相模原市緑区<JCC#111001>
JA/KN-022,35.5831,139.2787,1,375,Shiroyama,Midori-ku<JCC#111001>,城山,神奈川県相模原市緑区<JCC#111001>
JA/KN-023,35.316351,139.197802,1,328,Fudouyama,Odawara-city<JCC#1107>Ashigarakami-gun<JCG#11002C>,不動山,神奈川県小田原市<JCC#1107>神奈川県足柄上郡中井町<JCG#11002C>
JA/KN-024,35.4659,139.1046,8,1491,Doukakunoatama,Ashigarakami-gun<JCG#11002E>,同角ノ頭,神奈川県足柄上郡山北町<JCG#11002E>
JA/KN-025,35.4259,139.1057,8,1177,Isezawanoatama,Ashigarakami-gun<JCG#11002D>Ashigarakami-gun<JCG#11002E>,伊勢沢ノ頭,神奈川県足柄上郡松田町<JCG#11002D>神奈川県足柄上郡山北町<JCG#11002E>
JA/KN-026,35.2704,138.9822,8,1156,Marudake,Ashigarashimo-gun<JCG#11003C>,丸岳,神奈川県足柄下郡箱根町<JCG#11003C>
JA/KN-027,35.1971,139.0384,6,948,Byoubuyama,Ashigarashimo-gun<JCG#11003C>,屏風山,神奈川県足柄下郡箱根町<JCG#11003C>
JA/KN-028,35.6521,139.1666,6,855,Jinbasan,Midori-ku<JCC#111001>Hachioji-city<JCC#1002>,陣馬山,神奈川県相模原市緑区<JCC#111001>東京都八王子市<JCC#1002>
JA/KN-029,35.4854,139.2362,4,817,Nabearashi,Aiko-gun<JCG#11001B>,鍋嵐,神奈川県愛甲郡清川村<JCG#11001B>
JA/KN-030,35.5726,139.1694,2,578,Ishizareyama,Midori-ku<JCC#111001>,石砂山,神奈川県相模原市緑区<JCC#111001>
JA/KN-031,35.6343,139.1318,1,473,Takatoriyama,Midori-ku<JCC#111001>,鷹取山,神奈川県相模原市緑区<JCC#111001>
JA/KN-032,35.6116,139.1987,1,406,Arashiyama,Midori-ku<JCC#111001>,嵐山,神奈川県相模原市緑区<JCC#111001>
JA/KN-033,35.2501,139.6281,1,241,Oogusuyama,Yokosuka-city<JCC#1102>,大楠山,神奈川県横須賀市<JCC#1102>
JA/ST-001,35.9176,138.7277,10,2483,Sanpouzan,Chichibu-city<JCC#1307>Minamisaku-gun<JCG#09017A>,三宝山,埼玉県秩父市<JCC#1307>長野県南佐久郡川上村<JCG#09017A>
JA/ST-002,36.0234,138.8413,10,1723,Ryoukamisan,Chichibu-city<JCC#1307>Chichibu-gun<JCG#13007B>,両神山,埼玉県秩父市<JCC#1307>埼玉県秩父郡小鹿野町<JCG#13007B>
JA/ST-003,36.0168,138.7492,10,1659,P1659,Chichibu-city<JCC#1307>Tano-gun<JCG#16009F>,点1659,埼玉県秩父市<JCC#1307>群馬県多野郡上野村<JCG#16009F>
JA/ST-004,35.9516,139.0976,8,1304,Bukousan,Chichibu-gun<JCG#13007E>Chichibu-city<JCC#1307>,武甲山,埼玉県秩父郡横瀬町<JCG#13007E>埼玉県秩父市<JCC#1307>
JA/ST-005,35.9285,139.1005,8,1294,Oomochiyama,Chichibu-city<JCC#1307>Chichibu-gun<JCG#13007E>,大持山,埼玉県秩父市<JCC#1307>埼玉県秩父郡横瀬町<JCG#13007E>
JA/ST-006,36.0696,138.8637,8,1166,Futagoyama,Chichibu-gun<JCG#13007B>,二子山,埼玉県秩父郡小鹿野町<JCG#13007B>
JA/ST-007,36.0916,138.9124,6,1066,Ootsuka(Nagakubonoatama),Chichibu-gun<JCG#13007B>Tano-gun<JCG#16009G>,大塚(長久保の頭),埼玉県秩父郡小鹿野町<JCG#13007B>群馬県多野郡神流町<JCG#16009G>
JA/ST-008,35.9369,139.1302,6,1052,Takegawadake,Chichibu-gun<JCG#13007E>Hanno-city<JCC#1309>,武川岳,埼玉県秩父郡横瀬町<JCG#13007E>埼玉県飯能市<JCC#1309>
JA/ST-009,36.0976,139.0077,6,1038,Jominesan,Chichibu-city<JCC#1307>Chichibu-gun<JCG#13007I>Kodama-gun<JCG#13006D>,城峯山,埼玉県秩父市<JCC#1307>埼玉県秩父郡皆野町<JCG#13007I>埼玉県児玉郡神川町<JCG#13006D>
JA/ST-010,36.0494,138.917,6,997,Shiroishiyama,Chichibu-gun<JCG#13007B>,白石山,埼玉県秩父郡小鹿野町<JCG#13007B>
JA/ST-011,36.1019,138.9505,6,978,Takenokayayama,Chichibu-city<JCC#1307>Tano-gun<JCG#16009G>,竹ノ茅山,埼玉県秩父市<JCC#1307>群馬県多野郡神流町<JCG#16009G>
JA/ST-012,35.9886,139.1596,6,960,Maruyama,Chichibu-gun<JCG#13007E>,丸山,埼玉県秩父郡横瀬町<JCG#13007E>
JA/ST-013,35.9269,139.1607,6,851,Izugatake,Hanno-city<JCC#1309>,伊豆ヶ岳,埼玉県飯能市<JCC#1309>
JA/ST-014,36.0345,139.1562,4,767,Oogiriyama,Chichibu-gun<JCG#13007D>Chichibu-gun<JCG#13007I>,大霧山,埼玉県秩父郡東秩父村<JCG#13007D>埼玉県秩父郡皆野町<JCG#13007I>
JA/ST-015,35.9071,139.1852,4,660,Atagoyama(Nenogongen）,Hanno-city<JCC#1309>,愛宕山(子の権現),埼玉県飯能市<JCC#1309>
JA/ST-016,35.9761,138.9931,2,644,Near_Shinashu,Chichibu-city<JCC#1307>Chichibu-gun<JCG#13007B>,品刕(三角点近傍),埼玉県秩父市<JCC#1307>埼玉県秩父郡小鹿野町<JCG#13007B>
JA/ST-017,36.0578,139.1127,2,590,Minoyama,Chichibu-gun<JCG#13007I>Chichibu-city<JCC#1307>,蓑山,埼玉県秩父郡皆野町<JCG#13007I>埼玉県秩父市<JCC#1307>
JA/ST-018,36.1378,139.0955,2,549,Fudousan,Honjo-city<JCC#1311>Chichibu-gun<JCG#13007C>,不動山,埼玉県本庄市<JCC#1311>埼玉県秩父郡長瀞町<JCG#13007C>
JA/ST-019,36.0931,139.0915,1,497,Hodosan,Chichibu-gun<JCG#13007C>Chichibu-gun<JCG#13007I>,宝登山,埼玉県秩父郡長瀞町<JCG#13007C>埼玉県秩父郡皆野町<JCG#13007I>
JA/ST-020,36.017,139.25,1,418,Raidenyama,Hiki-gun<JCG#13008I>,雷電山,埼玉県比企郡ときがわ町<JCG#13008I>
JA/ST-021,36.0417,139.2711,1,299,Sengenyama,Hiki-gun<JCG#13008A>,仙元山,埼玉県比企郡小川町<JCG#13008A>
JA/ST-022,35.8549,138.8723,10,2012,Ryuubamiyama,Chichibu-city<JCC#1307>Kitatsuru-gun<JCG#17002B>,竜喰山,埼玉県秩父市<JCC#1307>山梨県北都留郡丹波山村<JCG#17002B>
JA/ST-023,35.9606,138.7745,10,1819,Akazawayama,Chichibu-city<JCC#1307>,赤沢山,埼玉県秩父市<JCC#1307>
JA/ST-024,36.044,138.9566,4,698,Kannonyama,Chichibu-gun<JCG#13007B>,観音山,埼玉県秩父郡小鹿野町<JCG#13007B>
JA/ST-025,36.0747,139.0451,4,653,Oomaeyama,Chichibu-gun<JCG#13007I>Chichibu-city<JCC#1307>,大前山,埼玉県秩父郡皆野町<JCG#13007I>埼玉県秩父市<JCC#1307>
JA/TG-001,36.7986,139.3759,10,2578,Shiranesan,Nikko-city<JCC#1506>Tone-gun<JCG#16010A>,白根山,栃木県日光市<JCC#1506>群馬県利根郡片品村<JCG#16010A>
JA/TG-002,36.7651,139.4908,10,2486,Nantaisan,Nikko-city<JCC#1506>,男体山,栃木県日光市<JCC#1506>
JA/TG-003,36.8115,139.5365,10,2483,Nyohousan,Nikko-city<JCC#1506>,女峰山,栃木県日光市<JCC#1506>
JA/TG-004,36.7736,139.353,10,2388,Suzugatake,Nikko-city<JCC#1506>Tone-gun<JCG#16010A>Numata-city<JCC#1606>,錫ヶ岳,栃木県日光市<JCC#1506>群馬県利根郡片品村<JCG#16010A>群馬県沼田市<JCC#1606>
JA/TG-005,36.7953,139.5071,10,2375,Nyohousan/Oomanagosan),Nikko-city<JCC#1506>,女峰山(大真名子山),栃木県日光市<JCC#1506>
JA/TG-006,36.8179,139.4828,10,2368,Tarousan,Nikko-city<JCC#1506>,太郎山,栃木県日光市<JCC#1506>
JA/TG-007,36.8245,139.4038,10,2333,Yusengatake,Nikko-city<JCC#1506>Tone-gun<JCG#16010A>,温泉ヶ岳,栃木県日光市<JCC#1506>群馬県利根郡片品村<JCG#16010A>
JA/TG-008,36.9087,139.3935,10,2163,Kuroiwayama,Nikko-city<JCC#1506>Tone-gun<JCG#16010A>,黒岩山,栃木県日光市<JCC#1506>群馬県利根郡片品村<JCG#16010A>
JA/TG-009,36.6899,139.337,10,2144,Sukaisan,Nikko-city<JCC#1506>Numata-city<JCC#1606>,皇海山,栃木県日光市<JCC#1506>群馬県沼田市<JCC#1606>
JA/TG-010,36.945,139.441,10,2067,Daikuratakayama,Nikko-city<JCC#1506>Minamiaizu-gun<JCG#07016C>,台倉高山,栃木県日光市<JCC#1506>福島県南会津郡檜枝岐村<JCG#07016C>
JA/TG-011,36.9698,139.46,10,2060,Taishakuzan,Nikko-city<JCC#1506>Minamiaizu-gun<JCG#07016C>Minamiaizu-gun<JCG#07016H>,帝釈山,栃木県日光市<JCC#1506>福島県南会津郡檜枝岐村<JCG#07016C>福島県南会津郡南会津町<JCG#07016H>
JA/TG-012,36.7246,139.3669,10,1980,Mitsumatayama,Nikko-city<JCC#1506>Numata-city<JCC#1606>,三俣山,栃木県日光市<JCC#1506>群馬県沼田市<JCC#1606>
JA/TG-013,36.7243,139.4117,10,1976,Kurobidake,Nikko-city<JCC#1506>,黒檜岳,栃木県日光市<JCC#1506>
JA/TG-014,36.8112,139.44,10,1945,Mitake,Nikko-city<JCC#1506>,三岳,栃木県日光市<JCC#1506>
JA/TG-015,37.1502,139.9613,10,1917,Sanbonyaridake,Nasushiobara-city<JCC#1513>Nishishirakawa-gun<JCG#07013E>,三本槍岳,栃木県那須塩原市<JCC#1513>福島県西白河郡西郷村<JCG#07013E>
JA/TG-016,37.1248,139.9631,10,1915,Nasudake/Chausudake,Nasu-gun<JCG#15007G>,那須岳(茶臼岳),栃木県那須郡那須町<JCG#15007G>
JA/TG-017,37.0635,139.8445,10,1908,Oosabiyama,Nasushiobara-city<JCC#1513>,大佐飛山,栃木県那須塩原市<JCC#1513>
JA/TG-018,37.0388,139.7929,10,1849,Hirugatake,Nasushiobara-city<JCC#1513>,日留賀岳,栃木県那須塩原市<JCC#1513>
JA/TG-019,36.9,139.7767,10,1795,Takaharayama/Shakagadake,Shioya-gun<JCG#15005F>Nikko-city<JCC#1506>,高原山(釈迦岳),栃木県塩谷郡塩谷町<JCG#15005F>栃木県日光市<JCC#1506>
JA/TG-020,36.7107,139.4758,10,1753,Hangetsusan,Nikko-city<JCC#1506>,半月山,栃木県日光市<JCC#1506>
JA/TG-021,36.9274,139.7876,10,1700,P1700,Nasushiobara-city<JCC#1513>,点1700(前黒山近傍),栃木県那須塩原市<JCC#1513>
JA/TG-022,36.7604,139.4304,10,1668,Takayama,Nikko-city<JCC#1506>,高山,栃木県日光市<JCC#1506>
JA/TG-023,36.9294,139.5999,10,1595,Myoujingatake,Nikko-city<JCC#1506>,明神ヶ岳,栃木県日光市<JCC#1506>
JA/TG-024,37.036,139.6438,10,1581,Arakaizan/Taroudake,Nikko-city<JCC#1506>Minamiaizu-gun<JCG#07016H>,荒海山(太郎岳),栃木県日光市<JCC#1506>福島県南会津郡南会津町<JCG#07016H>
JA/TG-025,36.6898,139.533,10,1526,Yuuhidake,Kanuma-city<JCC#1505>,夕日岳,栃木県鹿沼市<JCC#1505>
JA/TG-026,37.1179,139.816,10,1501,Uemidake,Nasushiobara-city<JCC#1513>Minamiaizu-gun<JCG#07016H>,上海岳(三角点),栃木県那須塩原市<JCC#1513>福島県南会津郡南会津町<JCG#07016H>
JA/TG-027,37.1129,139.8402,8,1487,Kenzaki,Nasushiobara-city<JCC#1513>,剣崎(三角点),栃木県那須塩原市<JCC#1513>
JA/TG-028,37.0241,139.7556,8,1463,P1463,Nikko-city<JCC#1506>Nasushiobara-city<JCC#1513>,点1463,栃木県日光市<JCC#1506>栃木県那須塩原市<JCC#1513>
JA/TG-029,36.9197,139.5766,8,1460,Maetakakurayama,Nikko-city<JCC#1506>,前高倉山,栃木県日光市<JCC#1506>
JA/TG-030,37.0148,139.5817,8,1399,Gakeyu,Nikko-city<JCC#1506>Minamiaizu-gun<JCG#07016H>,崖湯(三角点),栃木県日光市<JCC#1506>福島県南会津郡南会津町<JCG#07016H>
JA/TG-031,36.995,139.8321,8,1392,Yatarouyama,Nasushiobara-city<JCC#1513>,弥太郎山,栃木県那須塩原市<JCC#1513>
JA/TG-032,36.6312,139.5084,8,1388,Housaisan,Nikko-city<JCC#1506>Kanuma-city<JCC#1505>,方塞山,栃木県日光市<JCC#1506>栃木県鹿沼市<JCC#1505>
JA/TG-033,36.9731,139.6423,8,1366,Mochimaruyama,Nikko-city<JCC#1506>,持丸山,栃木県日光市<JCC#1506>
JA/TG-034,37.0205,139.6797,8,1342,Shibakusayama,Nikko-city<JCC#1506>,芝草山,栃木県日光市<JCC#1506>
JA/TG-035,36.8572,139.6406,8,1342,Meotoyama,Nikko-city<JCC#1506>,夫婦山,栃木県日光市<JCC#1506>
JA/TG-036,36.986,139.7288,8,1305,Miyoriyama,Nikko-city<JCC#1506>,三依山,栃木県日光市<JCC#1506>
JA/TG-037,36.8527,139.6187,8,1297,Oozasayama,Nikko-city<JCC#1506>,大笹山,栃木県日光市<JCC#1506>
JA/TG-038,36.8459,139.6594,8,1287,Gassan,Nikko-city<JCC#1506>,月山,栃木県日光市<JCC#1506>
JA/TG-039,36.7119,139.5545,8,1287,Ookido,Kanuma-city<JCC#1505>Nikko-city<JCC#1506>,大木戸(三角点),栃木県鹿沼市<JCC#1505>栃木県日光市<JCC#1506>
JA/TG-040,36.6558,139.4272,8,1272,Bizentateyama,Nikko-city<JCC#1506>,備前楯山,栃木県日光市<JCC#1506>
JA/TG-041,36.923,139.6453,8,1220,Tazou,Nikko-city<JCC#1506>,田象(三角点),栃木県日光市<JCC#1506>
JA/TG-042,36.9829,139.8553,8,1213,Ooami,Nasushiobara-city<JCC#1513>,大網(三角点),栃木県那須塩原市<JCC#1513>
JA/TG-043,36.5497,139.451,8,1199,Nemotoyama,Sano-city<JCC#1504>Kiryu-city<JCC#1603>Midori-city<JCC#1612>,根本山,栃木県佐野市<JCC#1504>群馬県桐生市<JCC#1603>群馬県みどり市<JCC#1612>
JA/TG-044,36.9034,139.6605,8,1178,Toriya,Nikko-city<JCC#1506>,鳥屋(三角点),栃木県日光市<JCC#1506>
JA/TG-045,36.8724,139.6611,8,1177,Daihyuugasan,Nikko-city<JCC#1506>,大日向山,栃木県日光市<JCC#1506>
JA/TG-046,36.83,139.6331,8,1134,Koyasudo,Nikko-city<JCC#1506>,小休戸(三角点),栃木県日光市<JCC#1506>
JA/TG-047,36.9211,139.6753,8,1124,Katsurousan,Nikko-city<JCC#1506>,葛老山,栃木県日光市<JCC#1506>
JA/TG-048,36.7304,139.5964,8,1104,Nakimushiyama,Nikko-city<JCC#1506>,鳴虫山,栃木県日光市<JCC#1506>
JA/TG-049,36.7025,139.5741,8,1101,P1101,Kanuma-city<JCC#1505>Nikko-city<JCC#1506>,点1101,栃木県鹿沼市<JCC#1505>栃木県日光市<JCC#1506>
JA/TG-050,36.6813,139.6441,6,970,Keimeizan,Nikko-city<JCC#1506>,鶏鳴山,栃木県日光市<JCC#1506>
JA/TG-051,36.8332,139.6929,6,964,Oozasa,Nikko-city<JCC#1506>,大笹(三角点),栃木県日光市<JCC#1506>
JA/TG-052,36.5551,139.5203,6,933,Odeyama,Sano-city<JCC#1504>Kanuma-city<JCC#1505>,尾出山,栃木県佐野市<JCC#1504>栃木県鹿沼市<JCC#1505>
JA/TG-053,36.7194,139.6168,6,892,P892,Nikko-city<JCC#1506>,点892,栃木県日光市<JCC#1506>
JA/TG-054,36.8393,139.7934,6,892,Kamiterashima,Shioya-gun<JCG#15005F>,上寺島(三角点),栃木県塩谷郡塩谷町<JCG#15005F>
JA/TG-055,36.6247,139.5947,4,811,Ootoyasan(Ooshio),Kanuma-city<JCC#1505>,大鳥屋山(大塩),栃木県鹿沼市<JCC#1505>
JA/TG-056,36.6561,139.6412,4,800,Sasamekurayama,Nikko-city<JCC#1506>Kanuma-city<JCC#1505>,笹目倉山,栃木県日光市<JCC#1506>栃木県鹿沼市<JCC#1505>
JA/TG-058,36.5575,139.5448,4,747,Yagurasan,Kanuma-city<JCC#1505>,谷倉山,栃木県鹿沼市<JCC#1505>
JA/TG-059,36.6117,139.6239,4,725,Nakimushiyama,Kanuma-city<JCC#1505>,鳴蟲山,栃木県鹿沼市<JCC#1505>
JA/TG-060,36.4875,139.5126,4,704,Takenoyama,Sano-city<JCC#1504>,岳ノ山,栃木県佐野市<JCC#1504>
JA/TG-061,36.5518,139.5936,4,672,Hanantoyama,Kanuma-city<JCC#1505>,ハナント山,栃木県鹿沼市<JCC#1505>
JA/TG-062,36.798,139.7637,4,668,Niwatoridake,Shioya-gun<JCG#15005F>,鶏岳,栃木県塩谷郡塩谷町<JCG#15005F>
JA/TG-063,36.4367,139.4009,4,663,Senningatake,Ashikaga-city<JCC#1502>Kiryu-city<JCC#1603>,仙人ヶ岳,栃木県足利市<JCC#1502>群馬県桐生市<JCC#1603>
JA/TG-064,36.4612,139.6211,2,605,Mitsuminesan,Tochigi-city<JCC#1503>Kanuma-city<JCC#1505>,三峰山,栃木県栃木市<JCC#1503>栃木県鹿沼市<JCC#1505>
JA/TG-065,36.4862,139.6428,2,599,Yagurasan,Kanuma-city<JCC#1505>Tochigi-city<JCC#1503>,谷倉山,栃木県鹿沼市<JCC#1505>栃木県栃木市<JCC#1503>
JA/TG-066,36.789702,139.823961,2,599,Matsutake,Shioya-gun<JCG#15005F>,松茸(三角点),栃木県塩谷郡塩谷町<JCG#15005F>
JA/TG-067,36.6217,139.7715,2,583,Kogashiyama,Utsunomiya-city<JCC#1501>,古賀志山,栃木県宇都宮市<JCC#1501>
JA/TG-068,36.584,139.6825,2,570,Futamatayama,Kanuma-city<JCC#1505>,二股山,栃木県鹿沼市<JCC#1505>
JA/TG-069,36.6892,139.8354,2,562,Motoyama,Utsunomiya-city<JCC#1501>,本山,栃木県宇都宮市<JCC#1501>
JA/TG-070,36.6083,139.6871,2,557,Kamadokurayama,Kanuma-city<JCC#1505>,かまど倉山,栃木県鹿沼市<JCC#1505>
JA/TG-071,36.4172,140.1428,2,533,Amamakisan,Haga-gun<JCG#15008E>Haga-gun<JCG#15008D>,雨巻山,栃木県芳賀郡茂木町<JCG#15008E>栃木県芳賀郡益子町<JCG#15008D>
JA/TG-072,36.4085,139.4127,2,506,Shinkouzan,Ashikaga-city<JCC#1502>,深高山,栃木県足利市<JCC#1502>
JA/TG-073,36.8047,140.1958,2,502,Takakurayama,Nasu-gun<JCG#15007J>,高倉山,栃木県那須郡那珂川町<JCG#15007J>
JA/TG-074,36.6407,139.7899,1,492,Kurakakesan,Nikko-city<JCC#1506>Utsunomiya-city<JCC#1501>,鞍掛山,栃木県日光市<JCC#1506>栃木県宇都宮市<JCC#1501>
JA/TG-075,36.7564,139.8362,1,481,Sekisonsan,Shioya-gun<JCG#15005F>,石尊山,栃木県塩谷郡塩谷町<JCG#15005F>
JA/TG-076,36.6175,139.7168,1,473,Tsugeshiyama,Kanuma-city<JCC#1505>Nikko-city<JCC#1506>,次石山,栃木県鹿沼市<JCC#1505>栃木県日光市<JCC#1506>
JA/TG-077,36.7083,139.8806,1,470,Hagurosan,Utsunomiya-city<JCC#1501>,羽黒山,栃木県宇都宮市<JCC#1501>
JA/TG-078,36.4459,139.6317,1,467,Houraisan,Tochigi-city<JCC#1503>,蓬莱山,栃木県栃木市<JCC#1503>
JA/TG-079,36.6705,139.7277,1,443,Shiroyama,Nikko-city<JCC#1506>,城山,栃木県日光市<JCC#1506>
JA/TG-080,36.3775,139.4373,1,443,Gyoudouzan,Ashikaga-city<JCC#1502>,行道山,栃木県足利市<JCC#1502>
JA/TG-081,36.4103,139.457,1,438,P438,Ashikaga-city<JCC#1502>,点438,栃木県足利市<JCC#1502>
JA/TG-082,36.3603,139.6754,1,419,Teruishisan,Tochigi-city<JCC#1503>,晃石山,栃木県栃木市<JCC#1503>
JA/TG-083,36.4092,139.6425,1,390,P390,Tochigi-city<JCC#1503>Sano-city<JCC#1504>,点390,栃木県栃木市<JCC#1503>栃木県佐野市<JCC#1504>
JA/TG-084,36.8073,139.5109,10,2323,Komanakosan,Nikko-city<JCC#1506>,小真名子山,栃木県日光市<JCC#1506>
JA/TG-085,36.818,139.463,10,2077,Sannouboushisan,Nikko-city<JCC#1506>,山王帽子山,栃木県日光市<JCC#1506>
JA/TG-086,36.827,139.4477,10,2020,Orokurayama,Nikko-city<JCC#1506>,於呂倶羅山,栃木県日光市<JCC#1506>
JA/TG-087,36.6494,139.3275,10,1961,Kesamaruyama,Nikko-city<JCC#1506>Numata-city<JCC#1606>,袈裟丸山,栃木県日光市<JCC#1506>群馬県沼田市<JCC#1606>
JA/TG-088,36.8446,139.4767,10,1798,Kumanosawayama,Nikko-city<JCC#1506>,熊ノ沢山(三角点),栃木県日光市<JCC#1506>
JA/TG-089,37.0313,139.8253,10,1640,Chojyadake,Nasushiobara-city<JCC#1513>,長者岳,栃木県那須塩原市<JCC#1513>
JA/TG-090,37.1101,139.9188,8,1410,Nishibotchi,Nasushiobara-city<JCC#1513>,西ボッチ,栃木県那須塩原市<JCC#1513>
JA/TG-091,37.084,139.8746,8,1407,Horanokai,Nasushiobara-city<JCC#1513>,法螺ノ貝(三角点),栃木県那須塩原市<JCC#1513>
JA/TG-092,37.1075,139.8872,8,1357,JA/TG-092,Nasushiobara-city<JCC#1513>,点1357,栃木県那須塩原市<JCC#1513>
JA/TG-093,37.0037,139.6484,8,1342,Hinatakurayama,Nikko-city<JCC#1506>,日向倉山,栃木県日光市<JCC#1506>
JA/TG-094,36.6088,139.4653,8,1274,Jizoudake,Nikko-city<JCC#1506>Kanuma-city<JCC#1505>,地蔵岳,栃木県日光市<JCC#1506>栃木県鹿沼市<JCC#1505>
JA/TG-095,37.0083,139.7923,8,1201,Hizurayama,Nasushiobara-city<JCC#1513>,比津羅山,栃木県那須塩原市<JCC#1513>
JA/TG-096,36.9533,139.7886,8,1184,Fujiyama,Nasushiobara-city<JCC#1513>,富士山,栃木県那須塩原市<JCC#1513>
JA/TG-097,37.0012,139.7739,8,1126,Wakamiyama,Nasushiobara-city<JCC#1513>,若見山,栃木県那須塩原市<JCC#1513>
JA/TG-098,36.9821,139.6089,8,1107,Tokuriyama,Nikko-city<JCC#1506>,徳利山(三角点),栃木県日光市<JCC#1506>
JA/TG-099,36.6234,139.5532,6,1070,Ootakiyama,Kanuma-city<JCC#1505>,大滝山,栃木県鹿沼市<JCC#1505>
JA/TG-100,36.8739,139.7132,6,951,Nimaibashi,Nikko-city<JCC#1506>,二枚橋(三角点),栃木県日光市<JCC#1506>
JA/TG-101,36.8469,139.7564,6,903,Kasamatsu,Nikko-city<JCC#1506>Shioya-gun<JCG#15005F>,笠松(三角点),栃木県日光市<JCC#1506>栃木県塩谷郡塩谷町<JCG#15005F>
JA/TG-102,36.6009,139.5804,6,890,Gassan,Kanuma-city<JCC#1505>,月山,栃木県鹿沼市<JCC#1505>
JA/TG-103,36.823,139.7496,4,770,P770,Shioya-gun<JCG#15005F>,点770,栃木県塩谷郡塩谷町<JCG#15005F>
JA/TG-104,36.526,139.5743,2,602,Takayasan,Kanuma-city<JCC#1505>,高谷山,栃木県鹿沼市<JCC#1505>
JA/TG-105,36.753,139.6901,2,586,Bisyamonyama,Nikko-city<JCC#1506>,毘沙門山,栃木県日光市<JCC#1506>
JA/TG-106,36.4827,139.5532,2,530,Tokanoyama,Sano-city<JCC#1504>,戸叶山,栃木県佐野市<JCC#1504>
JA/TG-107,36.8462,140.1622,2,512,Kodeyasan,Otawara-city<JCC#1510>,御亭山,栃木県大田原市<JCC#1510>
JA/TG-108,36.6572,139.8178,2,502,Hanzouyama,Utsunomiya-city<JCC#1501>,半蔵山,栃木県宇都宮市<JCC#1501>
JA/TG-109,36.6918,139.7858,1,445,Toramiyama,Nikko-city<JCC#1506>Utsunomiya-city<JCC#1501>,寅己山,栃木県日光市<JCC#1506>栃木県宇都宮市<JCC#1501>
JA/TG-110,36.6051,139.8038,1,376,Tagesan,Utsunomiya-city<JCC#1501>,多気山,栃木県宇都宮市<JCC#1501>
JA/TG-111,36.3874,139.5034,1,363,Sannousan,Sano-city<JCC#1504>Ashikaga-city<JCC#1502>,山王山,栃木県佐野市<JCC#1504>栃木県足利市<JCC#1502>
JA/TG-112,36.7634,140.2102,1,350,Near_Umasaka,Nasu-gun<JCG#15007J>,馬坂（三角点近傍）,栃木県那須郡那珂川町<JCG#15007J>
JA/TG-113,36.3741,139.6174,1,324,Suwadake,Sano-city<JCC#1504>Tochigi-city<JCC#1503>,諏訪岳,栃木県佐野市<JCC#1504>栃木県栃木市<JCC#1503>
JA/TG-114,36.316,139.6292,1,229,Mikamoyama,Sano-city<JCC#1504>Tochigi-city<JCC#1503>,三毳山,栃木県佐野市<JCC#1504>栃木県栃木市<JCC#1503>
JA/TG-115,36.955396,139.66537,8,1277,Takaseyama,Nikko-city<JCC#1506>,高瀬山,栃木県日光市<JCC#1506>
JA/TG-116,36.664008,139.587865,6,954,P954,Kanuma-city<JCC#1505>Nikko-city<JCC#1506>,点954,栃木県鹿沼市<JCC#1505>栃木県日光市<JCC#1506>
JA/TG-117,36.634656,139.642888,4,786,Tenkyuyama(Tenkiyama),Kanuma-city<JCC#1505>,天久山,栃木県鹿沼市<JCC#1505>
JA/TG-118,36.454703,139.44412,2,608,Takousan,Sano-city<JCC#1504>,多高山,栃木県佐野市<JCC#1504>
JA/TG-119,36.534657,139.708183,1,328,Oosawayama,Kanuma-city<JCC#1505>,大沢山,栃木県鹿沼市<JCC#1505>
JA/TG-120,36.33345,139.517135,1,314,Daisyouyama(Myougisan),Sano-city<JCC#1504>Ashikaga-city<JCC#1502>,大小山(妙義山),栃木県佐野市<JCC#1504>栃木県足利市<JCC#1502>
JA/TK-001,35.8555,138.9438,10,2017,Kumotoriyama,Nishitama-gun<JCG#10002F>Chichibu-city<JCC#1307>Kitatsuru-gun<JCG#17002B>,雲取山,東京都西多摩郡奥多摩町<JCG#10002F>埼玉県秩父市<JCC#1307>山梨県北都留郡丹波山村<JCG#17002B>
JA/TK-002,35.8741,138.9543,10,1946,Imokinodokke,Nishitama-gun<JCG#10002F>Chichibu-city<JCC#1307>,芋木ノドッケ,東京都西多摩郡奥多摩町<JCG#10002F>埼玉県秩父市<JCC#1307>
JA/TK-003,35.8299,139.0123,10,1737,Takanosuyama,Nishitama-gun<JCG#10002F>,鷹ノ巣山,東京都西多摩郡奥多摩町<JCG#10002F>
JA/TK-004,35.8971,139.0102,10,1718,Toridaniyama,Nishitama-gun<JCG#10002F>Chichibu-city<JCC#1307>,酉谷山,東京都西多摩郡奥多摩町<JCG#10002F>埼玉県秩父市<JCC#1307>
JA/TK-005,35.739,139.0137,10,1531,Mitousan,Nishitama-gun<JCG#10002F>Nishitama-gun<JCG#10002D>,三頭山,東京都西多摩郡奥多摩町<JCG#10002F>東京都西多摩郡檜原村<JCG#10002D>
JA/TK-006,35.7701,139.0807,8,1405,Gozenyama,Nishitama-gun<JCG#10002D>Nishitama-gun<JCG#10002F>,御前山,東京都西多摩郡檜原村<JCG#10002D>東京都西多摩郡奥多摩町<JCG#10002F>
JA/TK-007,35.7652,139.1304,8,1267,Oodakesan,Nishitama-gun<JCG#10002D>Nishitama-gun<JCG#10002F>,大岳山,東京都西多摩郡檜原村<JCG#10002D>東京都西多摩郡奥多摩町<JCG#10002F>
JA/TK-008,35.83,139.1019,8,1225,Honitayama,Nishitama-gun<JCG#10002F>,本仁田山,東京都西多摩郡奥多摩町<JCG#10002F>
JA/TK-009,24.2339,141.4636,6,916,SouthIwoJima,Iwojima-gun<JCG#10007A>,南硫黄島,東京都小笠原村@南硫黄島<JCG#10007A>
JA/TK-010,33.137,139.7661,6,854,Nishiyama/Hachijoufuji,Hachijomachi-gun<JCG#10006A>,西山(八丈富士),東京都八丈町@八丈島<JCG#10006A>
JA/TK-011,33.8744,139.6018,6,851,Oyama,Mikurajimamura-gun<JCG#10005B>,御山,東京都御蔵島村@御蔵島<JCG#10005B>
JA/TK-012,35.7065,139.1654,4,842,Usugiyama,Nishitama-gun<JCG#10002D>Akiruno-city<JCC#1029>,臼杵山,東京都西多摩郡檜原村<JCG#10002D>東京都あきる野市<JCC#1029>
JA/TK-013,25.4277,141.2812,4,792,Sakakigamine/North_Iwo_Jima,Ogasawaramura-gun<JCG#10007A>,榊ヶ峰(硫黄島),東京都小笠原村@北硫黄島<JCG#10007A>
JA/TK-014,34.0935,139.526,4,775,Oyama,Miyakemura-gun<JCG#10005A>,雄山,東京都三宅村@三宅島<JCG#10005A>
JA/TK-015,34.7244,139.3945,4,758,Miharashinsan,Oshimamachi-gun<JCG#10004A>,三原新山,東京都大島町@大島<JCG#10004A>
JA/TK-016,33.0921,139.8122,4,701,Miharayama,Hachijomachi-gun<JCG#10006A>,三原山,東京都八丈町@八丈島<JCG#10006A>
JA/TK-017,33.1256,139.6883,2,617,Taiheizan,Hachijomachi-gun<JCG#10006A>,大平山,東京都八丈町@八丈小島<JCG#10006A>
JA/TK-018,34.2195,139.1532,2,572,Tenjosan,Kozushimamura-gun<JCG#10004D>,天上山,東京都神津島村＠神津島<JCG#10004D>
JA/TK-019,34.5204,139.2793,2,508,Miyatsukesan,Toshimamura-gun<JCG#10004B>,宮家山,東京都利島村@利島<JCG#10004B>
JA/TK-020,26.6596,142.1615,1,463,Chibusayama,Hahajima-gun<JCG#10007A>,乳房山,東京都小笠原村@母島<JCG#10007A>
JA/TK-021,34.3969,139.2702,1,432,Miyatsukesan/Niijima,Niijimamura-gun<JCG#10004C>,宮家山,東京都新島村@新島<JCG#10004C>
JA/TK-022,32.4585,139.7593,1,423,Otonbu,Aogashimamura-gun<JCG#10006B>,大凸部,東京都青ヶ島村@青ヶ島<JCG#10006B>
JA/TK-023,30.4838,140.303,1,394,Iozan,Ogasawaramura-gun<JCG#10007A>,硫黄山,東京都小笠原村@鳥島<JCG#10007A>
JA/TK-024,27.0733,142.2187,1,320,Chuouzan/Chichijima,Chichijima-gun<JCG#10007A>,中央山(父島),東京都小笠原村@父島<JCG#10007A>
JA/TK-025,34.3496,139.2693,1,301,Omine,Niijimamura-gun<JCG#10004C>,大峯,東京都新島村@新島<JCG#10004C>
JA/TK-026,27.1124,142.2131,1,254,Mikaeyama,Chichijima-gun<JCG#10007A>,見返山,東京都小笠原村@兄島<JCG#10007A>
JA/TK-027,27.1566,142.1902,1,235,Sokuryougatake,Chichijima-gun<JCG#10007A>,測侶量ヶ岳,東京都小笠原村@弟島<JCG#10007A>
JA/TK-028,26.5587,142.2092,1,216,Imotojima,Hahajima-gun<JCG#10007A>,妹島,東京都小笠原村@妹島<JCG#10007A>
JA/TK-029,34.4728,139.2937,1,209,Udoneshima,Toshimamura-gun<JCG#10004B>,鵜渡根島,東京都利島村@鵜渡根島<JCG#10004B>
JA/TK-030,27.0988,142.188,1,204,Ogasawara_Is.,Chichijima-gun<JCG#10007A>,三日月山,東京都小笠原村@父島<JCG#10007A>
JA/TK-031,24.7505,141.2892,1,169,Suribachiyama/Paipuyama,Iwojima-gun<JCG#10007A>,摺鉢山(パイプ山),東京都小笠原村@硫黄島<JCG#10007A>
JA/TK-032,35.8645,138.9899,10,1723,Tensosan,Nishitama-gun<JCG#10002F>,天祖山,東京都西多摩郡奥多摩町<JCG#10002F>
JA/TK-033,35.8508,139.1069,8,1363,Kawanoriyama,Nishitama-gun<JCG#10002F>,川苔山(川乗山),東京都西多摩郡奥多摩町<JCG#10002F>
JA/TK-034,35.7424,139.0348,8,1302,Toyama,Nishitama-gun<JCG#10002F>Nishitama-gun<JCG#10002D>,砥山,東京都西多摩郡奥多摩町<JCG#10002F>東京都西多摩郡檜原村<JCG#10002D>
JA/TK-035,35.8155,139.2152,1,494,Raidenyama,Ome-city<JCC#1006>,雷電山,東京都青梅市<JCC#1006>
JA/TK-036,34.4167,139.2837,1,231,Niijimayama,Niijimamura-gun<JCG#10004C>,新島山,東京都新島村@新島<JCG#10004C>
JA/YN-001,35.6743,138.2388,10,3193,Kitadake,Minami-Alps-city<JCC#1708>,北岳,山梨県南アルプス市<JCC#1708>
JA/YN-002,35.646,138.2284,10,3189,Ainodake,Minami-Alps-city<JCC#1708>Minamikoma-gun<JCG#17007F>Aoi-ku<JCC#180101>,間ノ岳,山梨県南アルプス市<JCC#1708>山梨県南巨摩郡早川町<JCG#17007F>静岡県静岡市葵区<JCC#180101>
JA/YN-004,35.7201,138.1836,10,3033,Senjyougatake,Minami-Alps-city<JCC#1708>Ina-city<JCC#0909>,仙丈ヶ岳,山梨県南アルプス市<JCC#1708>長野県伊那市<JCC#0909>
JA/YN-005,35.758,138.2366,10,2967,Komagatake,Hokuto-city<JCC#1709>Ina-city<JCC#0909>,駒ヶ岳,山梨県北杜市<JCC#1709>長野県伊那市<JCC#0909>
JA/YN-006,35.9708,138.3701,10,2899,Akadake,Hokuto-city<JCC#1709>Suwa-gun<JCG#09011B>Chino-city<JCC#0914>,赤岳,山梨県北杜市<JCC#1709>長野県諏訪郡原村<JCG#09011B>長野県茅野市<JCC#0914>
JA/YN-007,35.7017,138.3046,10,2840,Kannongadake,Minami-Alps-city<JCC#1708>Nirasaki-city<JCC#1707>,観音ヶ岳,山梨県南アルプス市<JCC#1708>山梨県韮崎市<JCC#1707>
JA/YN-008,35.7317,138.2413,10,2799,Asayomine,Minami-Alps-city<JCC#1708>Hokuto-city<JCC#1709>,アサヨ峰,山梨県南アルプス市<JCC#1708>山梨県北杜市<JCC#1709>
JA/YN-009,35.9505,138.3594,10,2720,Gongendake,Hokuto-city<JCC#1709>Suwa-gun<JCG#09011C>,権現岳,山梨県北杜市<JCC#1709>長野県諏訪郡富士見町<JCG#09011C>
JA/YN-010,35.779,138.21,10,2685,Nokogiriyama,Hokuto-city<JCC#1709>Ina-city<JCC#0909>,鋸山,山梨県北杜市<JCC#1709>長野県伊那市<JCC#0909>
JA/YN-011,35.4242,138.2595,10,2629,Zarugatake,Minamikoma-gun<JCG#17007F>Aoi-ku<JCC#180101>,笊ヶ岳,山梨県南巨摩郡早川町<JCG#17007F>静岡県静岡市葵区<JCC#180101>
JA/YN-012,35.8686,138.6708,10,2601,Kitaokusenjyoudake,Yamanashi-city<JCC#1705>,北奥千丈岳,山梨県山梨市<JCC#1705>
JA/YN-013,35.8716,138.6256,10,2599,Kinpusan,Kofu-city<JCC#1701>Minamisaku-gun<JCG#09017A>,金峰山,山梨県甲府市<JCC#1701>長野県南佐久郡川上村<JCG#09017A>
JA/YN-014,35.4461,138.2563,10,2540,Haimatsuoyama,Minamikoma-gun<JCG#17007F>,偃松尾山,山梨県南巨摩郡早川町<JCG#17007F>
JA/YN-015,35.3857,138.2386,10,2405,Inamatayama,Minamikoma-gun<JCG#17007F>Aoi-ku<JCC#180101>,稲又山,山梨県南巨摩郡早川町<JCG#17007F>静岡県静岡市葵区<JCC#180101>
JA/YN-016,35.7942,138.2312,10,2319,Ooiwayama,Hokuto-city<JCC#1709>,大岩山,山梨県北杜市<JCC#1709>
JA/YN-017,35.9019,138.7588,10,2318,Hafuusan,Yamanashi-city<JCC#1705>Chichibu-city<JCC#1307>,破風山,山梨県山梨市<JCC#1705>埼玉県秩父市<JCC#1307>
JA/YN-018,35.8413,138.7098,10,2232,Kuroganeyama,Yamanashi-city<JCC#1705>,黒金山,山梨県山梨市<JCC#1705>
JA/YN-019,35.514,138.2711,10,2226,Bettoudaisan,Minamikoma-gun<JCG#17007F>Aoi-ku<JCC#180101>,別当代山,山梨県南巨摩郡早川町<JCG#17007F>静岡県静岡市葵区<JCC#180101>
JA/YN-020,35.3487,138.2559,10,2209,Aozasayama,Minamikoma-gun<JCG#17007F>Aoi-ku<JCC#180101>,青笹山,山梨県南巨摩郡早川町<JCG#17007F>静岡県静岡市葵区<JCC#180101>
JA/YN-021,35.6745,138.3518,10,2140,Sentouboshiyama,Nirasaki-city<JCC#1707>Minami-Alps-city<JCC#1708>,千頭星山,山梨県韮崎市<JCC#1707>山梨県南アルプス市<JCC#1708>
JA/YN-022,35.8677,138.8454,10,2109,Karamatsuoyama,Koshu-city<JCC#1713>Chichibu-city<JCC#1307>,唐松尾山,山梨県甲州市<JCC#1713>埼玉県秩父市<JCC#1307>
JA/YN-023,35.8398,138.8922,10,2077,Ooborayama/Hiryuuyama),Kitatsuru-gun<JCG#17002B>Chichibu-city<JCC#1307>,大洞山(飛龍山),山梨県北都留郡丹波山村<JCG#17002B>埼玉県秩父市<JCC#1307>
JA/YN-024,35.7487,138.8455,10,2057,Daibosatsurei,Koshu-city<JCC#1713>Kitatsuru-gun<JCG#17002B>,大菩薩嶺,山梨県甲州市<JCC#1713>山梨県北都留郡丹波山村<JCG#17002B>
JA/YN-025,35.5867,138.3691,10,2052,Kushigatayama,Minamikoma-gun<JCG#17007H>Minami-Alps-city<JCC#1708>,櫛形山,山梨県南巨摩郡富士川町<JCG#17007H>山梨県南アルプス市<JCC#1708>
JA/YN-026,35.8262,138.2356,10,2037,Amagoidake,Hokuto-city<JCC#1709>,雨乞岳,山梨県北杜市<JCC#1709>
JA/YN-027,35.3692,138.3489,10,1989,Shichimenzan,Minamikoma-gun<JCG#17007F>,七面山,山梨県南巨摩郡早川町<JCG#17007F>
JA/YN-028,35.5675,138.3452,10,1910,Maruyama,Minamikoma-gun<JCG#17007H>,丸山,山梨県南巨摩郡富士川町<JCG#17007H>
JA/YN-029,35.553,138.3626,10,1908,Ootouge,Minamikoma-gun<JCG#17007H>,大峠(三角点),山梨県南巨摩郡富士川町<JCG#17007H>
JA/YN-030,35.9188,138.5211,10,1818,Yokooyama,Hokuto-city<JCC#1709>Minamisaku-gun<JCG#09017A>,横尾山,山梨県北杜市<JCC#1709>長野県南佐久郡川上村<JCG#09017A>
JA/YN-031,35.5521,138.7494,10,1793,Kurotake,Fuefuki-city<JCC#1711>Minamitsuru-gun<JCG#17008J>,黒岳,山梨県笛吹市<JCC#1711>山梨県南都留郡富士河口湖町<JCG#17008J>
JA/YN-032,35.5493,138.8092,10,1785,Mitsutougeyama,Minamitsuru-gun<JCG#17008J>Minamitsuru-gun<JCG#17008H>,三ッ峠山,山梨県南都留郡富士河口湖町<JCG#17008J>山梨県南都留郡西桂町<JCG#17008H>
JA/YN-033,35.8117,138.7832,10,1777,Kurakakeyama,Koshu-city<JCC#1713>Yamanashi-city<JCC#1705>,倉掛山,山梨県甲州市<JCC#1713>山梨県山梨市<JCC#1705>
JA/YN-034,35.8287,138.5719,10,1770,P1770,Kofu-city<JCC#1701>Hokuto-city<JCC#1709>,点1770,山梨県甲府市<JCC#1701>山梨県北杜市<JCC#1709>
JA/YN-035,35.8032,138.5094,10,1764,Kanegatake,Hokuto-city<JCC#1709>,金ヶ岳,山梨県北杜市<JCC#1709>
JA/YN-036,35.5198,138.6765,10,1738,Onigatake,Minamitsuru-gun<JCG#17008J>Fuefuki-city<JCC#1711>,鬼ヶ岳,山梨県南都留郡富士河口湖町<JCG#17008J>山梨県笛吹市<JCC#1711>
JA/YN-037,35.7815,138.6641,10,1713,Konarayama,Yamanashi-city<JCC#1705>,小楢山,山梨県山梨市<JCC#1705>
JA/YN-038,35.4869,138.9315,10,1682,Mishoutaiyama,Minamitsuru-gun<JCG#17008F>Tsuru-city<JCC#1704>,御正体山,山梨県南都留郡道志村<JCG#17008F>山梨県都留市<JCC#1704>
JA/YN-039,35.2988,138.3724,10,1672,P1672,Minamikoma-gun<JCG#17007G>Minamikoma-gun<JCG#17007E>Aoi-ku<JCC#180101>,点1672,山梨県南巨摩郡身延町<JCG#17007G>山梨県南巨摩郡南部町<JCG#17007E>静岡県静岡市葵区<JCC#180101>
JA/YN-040,35.4881,138.3699,10,1670,Gotenyama,Minamikoma-gun<JCG#17007H>Minamikoma-gun<JCG#17007F>,御殿山,山梨県南巨摩郡富士川町<JCG#17007H>山梨県南巨摩郡早川町<JCG#17007F>
JA/YN-041,35.4858,138.8762,10,1640,Near_Shakushiyama,Minamitsuru-gun<JCG#17008C>Tsuru-city<JCC#1704>,杓子山近傍,山梨県南都留郡忍野村<JCG#17008C>山梨県都留市<JCC#1704>
JA/YN-042,35.3813,138.5126,10,1634,Gosouyama,Minamikoma-gun<JCG#17007G>Minamikoma-gun<JCG#17007E>,五宗山,山梨県南巨摩郡身延町<JCG#17007G>山梨県南巨摩郡南部町<JCG#17007E>
JA/YN-043,35.5748,138.8073,10,1631,Honjagamaru,Otsuki-city<JCC#1706>Tsuru-city<JCC#1704>,本社ヶ丸,山梨県大月市<JCC#1706>山梨県都留市<JCC#1704>
JA/YN-044,35.8166,138.8393,10,1606,Fujioyama,Koshu-city<JCC#1713>,藤尾山,山梨県甲州市<JCC#1713>
JA/YN-045,35.7584,138.6049,10,1553,Mizugamori,Yamanashi-city<JCC#1705>Kofu-city<JCC#1701>,水ヶ森,山梨県山梨市<JCC#1705>山梨県甲府市<JCC#1701>
JA/YN-046,35.6058,138.7593,8,1487,P1487,Fuefuki-city<JCC#1711>,点1487,山梨県笛吹市<JCC#1711>
JA/YN-047,35.5218,138.9698,8,1480,Gozeriyama,Tsuru-city<JCC#1704>Minamitsuru-gun<JCG#17008F>,御座入山,山梨県都留市<JCC#1704>山梨県南都留郡道志村<JCG#17008F>
JA/YN-048,35.7782,138.5881,8,1475,Nakatsumori,Kofu-city<JCC#1701>,中津森,山梨県甲府市<JCC#1701>
JA/YN-049,35.4529,138.9117,8,1446,Near_Ishiwariyama,Minamitsuru-gun<JCG#17008I>Tsuru-city<JCC#1704>,石割山近傍,山梨県南都留郡山中湖村<JCG#17008I>山梨県都留市<JCC#1704>
JA/YN-050,35.6221,138.8133,8,1430,Obouyama,Otsuki-city<JCC#1706>Koshu-city<JCC#1713>,お坊山,山梨県大月市<JCC#1706>山梨県甲州市<JCC#1713>
JA/YN-051,35.5048,138.6023,8,1422,Sanpoubunzan,Minamitsuru-gun<JCG#17008J>Minamikoma-gun<JCG#17007G>Kofu-city<JCC#1701>,三方分山,山梨県南都留郡富士河口湖町<JCG#17008J>山梨県南巨摩郡身延町<JCG#17007G>山梨県甲府市<JCC#1701>
JA/YN-052,35.2477,138.4265,8,1394,Shinoisan,Minamikoma-gun<JCG#17007E>,篠井山,山梨県南巨摩郡南部町<JCG#17007E>
JA/YN-053,35.4942,138.7076,8,1355,Ashiwadayama,Minamitsuru-gun<JCG#17008G>Minamitsuru-gun<JCG#17008J>,足和田山,山梨県南都留郡鳴沢村<JCG#17008G>山梨県南都留郡富士河口湖町<JCG#17008J>
JA/YN-054,35.6679,139.0214,8,1312,Gongenyama,Uenohara-city<JCC#1712>Otsuki-city<JCC#1706>,権現山,山梨県上野原市<JCC#1712>山梨県大月市<JCC#1706>
JA/YN-055,35.7703,138.9497,8,1288,Shishigurayama,Kitatsuru-gun<JCG#17002A>Kitatsuru-gun<JCG#17002B>,鹿倉山,山梨県北都留郡小菅村<JCG#17002A>山梨県北都留郡丹波山村<JCG#17002B>
JA/YN-056,35.519,138.5357,8,1279,Hirugatake,Nishiyatsushiro-gun<JCG#17004F>Minamikoma-gun<JCG#17007G>,蛾ヶ岳,山梨県西八代郡市川三郷町<JCG#17004F>山梨県南巨摩郡身延町<JCG#17007G>
JA/YN-057,35.3719,138.3943,8,1169,Near_Takatoriyama,Minamikoma-gun<JCG#17007F>Minamikoma-gun<JCG#17007G>,鷹取山近傍,山梨県南巨摩郡早川町<JCG#17007F>山梨県南巨摩郡身延町<JCG#17007G>
JA/YN-058,35.3975,138.4163,8,1153,Minobusan,Minamikoma-gun<JCG#17007G>Minamikoma-gun<JCG#17007F>,身延山,山梨県南巨摩郡身延町<JCG#17007G>山梨県南巨摩郡早川町<JCG#17007F>
JA/YN-059,35.6371,139.0134,8,1138,Gongenyama/Ougiyama,Otsuki-city<JCC#1706>Uenohara-city<JCC#1712>,扇山,山梨県大月市<JCC#1706>山梨県上野原市<JCC#1712>
JA/YN-060,35.6381,138.981,6,1003,Momokurasan,Otsuki-city<JCC#1706>,百蔵山,山梨県大月市<JCC#1706>
JA/YN-061,35.584,139.0198,6,990,Kuratakeyama,Uenohara-city<JCC#1712>Otsuki-city<JCC#1706>,倉岳山,山梨県上野原市<JCC#1712>山梨県大月市<JCC#1706>
JA/YN-062,35.5861,138.9019,6,976,Takagawayama,Otsuki-city<JCC#1706>Tsuru-city<JCC#1704>,高川山,山梨県大月市<JCC#1706>山梨県都留市<JCC#1704>
JA/YN-063,35.5766,138.9511,6,970,Kukiyama,Tsuru-city<JCC#1704>Otsuki-city<JCC#1706>,九鬼山,山梨県都留市<JCC#1704>山梨県大月市<JCC#1706>
JA/YN-064,35.7939,138.3386,6,887,Nakayama,Hokuto-city<JCC#1709>,中山,山梨県北杜市<JCC#1709>
JA/YN-065,35.5863,139.0671,6,860,Yadairayama,Uenohara-city<JCC#1712>Otsuki-city<JCC#1706>,矢平山,山梨県上野原市<JCC#1712>山梨県大月市<JCC#1706>
JA/YN-066,35.2621,138.5143,4,812,Shiromizuyama,Minamikoma-gun<JCG#17007E>Fujinomiya-city<JCC#1807>,白水山,山梨県南巨摩郡南部町<JCG#17007E>静岡県富士宮市<JCC#1807>
JA/YN-067,35.5953,138.9518,4,797,P797,Otsuki-city<JCC#1706>,点797,山梨県大月市<JCC#1706>
JA/YN-068,35.474,138.5026,4,663,P663,Minamikoma-gun<JCG#17007G>,点663,山梨県南巨摩郡身延町<JCG#17007G>
JA/YN-069,35.447,138.4275,2,645,Karasumoriyama,Minamikoma-gun<JCG#17007G>,烏森山,山梨県南巨摩郡身延町<JCG#17007G>
JA/YN-070,35.4371,138.4622,2,640,Daigoyama,Minamikoma-gun<JCG#17007G>,醍醐山,山梨県南巨摩郡身延町<JCG#17007G>
JA/YN-071,35.5199,138.4732,2,550,P550,Nishiyatsushiro-gun<JCG#17004F>,点550,山梨県西八代郡市川三郷町<JCG#17004F>
JA/YN-072,35.4754,138.4631,1,472,P472,Minamikoma-gun<JCG#17007G>,点472,山梨県南巨摩郡身延町<JCG#17007G>
JA/YN-073,35.4085,138.2582,10,2584,Nunobikiyama,Minamikoma-gun<JCG#17007F>Aoi-ku<JCC#180101>,布引山,山梨県南巨摩郡早川町<JCG#17007F>静岡県静岡市葵区<JCC#180101>
JA/YN-074,35.362,138.3494,10,1990,P1990,Minamikoma-gun<JCG#17007F>,点1990,山梨県南巨摩郡早川町<JCG#17007F>
JA/YN-075,35.6868,138.8848,10,1874,Gangaharasuriyama,Otsuki-city<JCC#1706>,雁ヶ腹摺山,山梨県大月市<JCC#1706>
JA/YN-076,35.5876,138.3273,10,1801,Takayama,Minamikoma-gun<JCG#17007F>,高山,山梨県南巨摩郡早川町<JCG#17007F>
JA/YN-077,35.7885,138.8356,10,1716,Keikanzan,Koshu-city<JCC#1713>,鶏冠山,山梨県甲州市<JCC#1713>
JA/YN-078,35.8744,138.572,10,1700,Makonoyama,Hokuto-city<JCC#1709>,摩子の山,山梨県北杜市<JCC#1709>
JA/YN-079,35.5629,138.7209,10,1641,Shakagadake,Fuefuki-city<JCC#1711>,釈迦ヶ岳,山梨県笛吹市<JCC#1711>
JA/YN-080,35.7675,138.8881,10,1541,Sakariyama,Kitatsuru-gun<JCG#17002B>Kitatsuru-gun<JCG#17002A>,サカリ山,山梨県北都留郡丹波山村<JCG#17002B>山梨県北都留郡小菅村<JCG#17002A>
JA/YN-081,35.4468,138.5835,8,1485,Ryugatake,Minamitsuru-gun<JCG#17008J>Minamikoma-gun<JCG#17007G>,竜ヶ岳,山梨県南都留郡富士河口湖町<JCG#17008J>山梨県南巨摩郡身延町<JCG#17007G>
JA/YN-082,35.4409,138.6536,8,1468,Oomuroyama,Minamitsuru-gun<JCG#17008J>,大室山,山梨県南都留郡富士河口湖町<JCG#17008J>
JA/YN-083,35.5809,138.6998,8,1415,Ootochiyama,Fuefuki-city<JCC#1711>,大栃山,山梨県笛吹市<JCC#1711>
JA/YN-084,35.7757,138.5425,8,1322,Tachiokayama,Kofu-city<JCC#1701>Kai-city<JCC#1710>,太刀岡山,山梨県甲府市<JCC#1701>山梨県甲斐市<JCC#1710>
JA/YN-085,35.3403,138.522,8,1300,P1300,Minamikoma-gun<JCG#17007E>,点1300,山梨県南巨摩郡南部町<JCG#17007E>
JA/YN-086,35.5443,139.0245,8,1299,Akakuragatake,Tsuru-city<JCC#1704>Minamitsuru-gun<JCG#17008F>Uenohara-city<JCC#1712>,赤鞍ヶ岳,山梨県都留市<JCC#1704>山梨県南都留郡道志村<JCG#17008F>山梨県上野原市<JCC#1712>
JA/YN-087,35.508,138.8557,8,1256,Kuramiyama,Tsuru-city<JCC#1704>Minamitsuru-gun<JCG#17008H>,倉見山,山梨県都留市<JCC#1704>山梨県南都留郡西桂町<JCG#17008H>
JA/YN-088,35.5482,138.6157,8,1246,P1246,Kofu-city<JCC#1701>Fuefuki-city<JCC#1711>,点1246,山梨県甲府市<JCC#1701>山梨県笛吹市<JCC#1711>
JA/YN-089,35.562,138.6526,8,1236,Meishozan,Fuefuki-city<JCC#1711>,名所山,山梨県笛吹市<JCC#1711>
JA/YN-090,35.2066,138.4178,8,1205,Tokumamura10,Minamikoma-gun<JCG#17007E>,徳間村（十）(三角点),山梨県南巨摩郡南部町<JCG#17007E>
JA/YN-091,35.7417,138.3774,8,1132,Arakurayama,Nirasaki-city<JCC#1707>,荒倉山,山梨県韮崎市<JCC#1707>
JA/YN-092,35.8335,138.4569,8,1120,Madarayama,Hokuto-city<JCC#1709>,斑山,山梨県北杜市<JCC#1709>
JA/YN-093,35.2989,138.4909,6,1040,Shishinsan,Minamikoma-gun<JCG#17007E>,思親山,山梨県南巨摩郡南部町<JCG#17007E>
JA/YN-094,35.6163,138.9177,4,750,Hanasakiyama,Otsuki-city<JCC#1706>,花咲山,山梨県大月市<JCC#1706>
